fecha,indicativo,nombre,provincia,prec,velmedia,sol,longitud,latitud
01/2014,0002I,VANDELLÒS  ,TARRAGONA,25.7,2.1548387096774193,,0.8713888888888889,40.95805555555556
01/2014,0016A,REUS AEROPUERTO,TARRAGONA,15.6,3.229032258064516,3.574193548387097,1.163611111111111,41.144999999999996
01/2014,0076,BARCELONA AEROPUERTO,BARCELONA,29.6,3.7387096774193544,2.1193548387096777,2.0700000000000003,41.29277777777778
01/2014,0149X,MANRESA,BARCELONA,36.0,1.8709677419354838,4.312903225806451,1.840277777777778,41.72
01/2014,0200E,"BARCELONA, FABRA",BARCELONA,43.0,4.148387096774194,4.816129032258065,2.1241666666666665,41.41833333333333
01/2014,0201D,BARCELONA,BARCELONA,40.2,2.641935483870968,,2.2,41.39055555555556
01/2014,0229I,SABADELL AEROPUERTO,BARCELONA,23.1,2.2129032258064516,,2.1030555555555557,41.52361111111111
01/2014,0252D,ARENYS DE MAR,BARCELONA,29.0,1.1516129032258062,,2.54,41.587500000000006
01/2014,0255B,SANTA SUSANNA,BARCELONA,41.4,,,2.6969444444444446,41.65083333333333
01/2014,0324A,RIPOLL,GIRONA,39.099999999999994,1.0129032258064516,,2.196111111111111,42.19138888888889
01/2014,0367,GIRONA AEROPUERTO,GIRONA,26.9,1.6551724137931034,4.470967741935484,2.763333333333333,41.91166666666666
01/2014,0372C,PORQUERES,GIRONA,22.8,1.2225806451612902,,2.763611111111111,42.10444444444445
01/2014,1002Y,"BAZTAN, IRURITA ",NAVARRA,329.5,1.0193548387096774,,-1.5430555555555554,43.13583333333333
01/2014,1014,"HONDARRIBIA, MALKARROA",GIPUZKOA,413.7,4.119354838709677,1.6225806451612903,-1.7922222222222222,43.356944444444444
01/2014,1014A,DONOSTIA / SAN SEBASTIÁN AEROPUERTO,GIPUZKOA,423.59999999999997,4.161290322580645,1.6290322580645162,-1.7922222222222222,43.356944444444444
01/2014,1024E,"DONOSTIA / SAN SEBASTIÁN, IGELDO",GIPUZKOA,349.3,5.670967741935484,2.0580645161290323,-2.041111111111111,43.30638888888888
01/2014,1037Y,ZUMARRAGA,GIPUZKOA,277.7,2.36,,-2.3175,43.080000000000005
01/2014,1041A,ZUMAIA,GIPUZKOA,166.3,4.82258064516129,,-2.2511111111111113,43.30222222222222
01/2014,1050J,ELGOIBAR,GIPUZKOA,237.3,1.964516129032258,,-2.413333333333333,43.20944444444445
01/2014,1055B,LEKEITIO,BIZKAIA,118.8,4.72258064516129,,-2.5102777777777776,43.37694444444445
01/2014,1057B,MATXITXAKO,BIZKAIA,271.6,6.425806451612903,,-2.7527777777777778,43.45388888888889
01/2014,1059X,PUNTA GALEA,BIZKAIA,200.5,3.6193548387096777,,-3.0216666666666665,43.375
01/2014,1078I,GÜEÑES,BIZKAIA,208.7,2.4709677419354836,,-3.104722222222222,43.20333333333333
01/2014,1082,BILBAO AEROPUERTO,BIZKAIA,212.3,3.6451612903225805,1.3064516129032258,-2.906388888888889,43.29805555555556
01/2014,1109,SANTANDER AEROPUERTO,CANTABRIA,257.5,,1.3935483870967742,-3.8255555555555554,43.42388888888889
01/2014,1111,SANTANDER,CANTABRIA,238.8,6.467741935483871,1.3838709677419354,-3.8005555555555555,43.49111111111111
01/2014,1111X,SANTANDER,CANTABRIA,242.4,6.854838709677419,1.3161290322580645,-3.8005555555555555,43.49111111111111
01/2014,1159,SAN VICENTE DE LA BARQUERA,CANTABRIA,155.20000000000002,3.3870967741935485,,-4.392222222222222,43.39333333333333
01/2014,1183X,LLANES,ASTURIAS,142.0,3.0935483870967744,1.3741935483870968,-4.748055555555555,43.42027777777778
01/2014,1207U,"GIJÓN, CAMPUS",ASTURIAS,149.6,2.0129032258064514,,-5.621111111111111,43.52305555555555
01/2014,1208H,"GIJÓN, PUERTO",ASTURIAS,161.5,,1.9516129032258065,-5.700833333333334,43.559999999999995
01/2014,1210X,CABO PEÑAS,ASTURIAS,159.1,5.461290322580646,,-5.8486111111111105,43.655833333333334
01/2014,1212E,ASTURIAS AEROPUERTO,ASTURIAS,180.20000000000002,4.396774193548388,1.3483870967741935,-6.0441666666666665,43.566944444444445
01/2014,1221D,PAJARES-VALGRANDE,ASTURIAS,180.9,4.412903225806452,,-5.776388888888889,42.978611111111114
01/2014,1249I,OVIEDO,ASTURIAS,143.6,2.9214285714285713,2.5354838709677416,-5.874166666666667,43.35333333333333
01/2014,1249X,OVIEDO,ASTURIAS,144.8,2.8870967741935485,2.2838709677419353,-5.874166666666667,43.35333333333333
01/2014,1283U,CABO BUSTO,ASTURIAS,85.8,,1.9724137931034484,-6.47,43.56916666666667
01/2014,1351,ESTACA DE BARES,A CORUÑA,124.4,12.351612903225806,1.8129032258064517,-7.6850000000000005,43.78611111111111
01/2014,1387,A CORUÑA,A CORUÑA,204.6,4.922580645161291,1.7580645161290323,-8.421388888888888,43.365833333333335
01/2014,1387E,A CORUÑA AEROPUERTO,A CORUÑA,136.2,4.567741935483871,1.4,-8.371944444444445,43.30694444444444
01/2014,1393,CABO VILÁN,A CORUÑA,163.6,7.247826086956521,,-9.210833333333333,43.160555555555554
01/2014,1400,FISTERRA,A CORUÑA,190.4,9.90967741935484,1.8258064516129033,-9.29138888888889,42.92472222222222
01/2014,1428,SANTIAGO DE COMPOSTELA AEROPUERTO,A CORUÑA,409.1,4.306451612903226,1.2096774193548387,-8.410555555555556,42.88805555555555
01/2014,1473A,PADRÓN,A CORUÑA,121.5,3.1500000000000004,,-8.627222222222223,42.73833333333334
01/2014,1475X,SANTIAGO DE COMPOSTELA,A CORUÑA,459.3,0.85,,-8.555833333333334,42.876111111111115
01/2014,1484C,PONTEVEDRA,PONTEVEDRA,349.7,1.864516129032258,1.1129032258064515,-8.615833333333333,42.43833333333333
01/2014,1495,VIGO AEROPUERTO,PONTEVEDRA,432.9,3.429032258064516,0.6967741935483871,-8.623888888888889,42.23861111111111
01/2014,1505,LUGO AEROPUERTO,LUGO,212.4,2.793548387096774,0.8258064516129032,-7.4575000000000005,43.11138888888889
01/2014,1542,PUERTO DE LEITARIEGOS,ASTURIAS,205.6,6.196666666666667,0.9129032258064517,-6.4141666666666675,42.994166666666665
01/2014,1549,PONFERRADA,LEON,131.8,1.7645161290322582,1.803225806451613,-6.6,42.56388888888888
01/2014,1631E,A POBRA DE TRIVES,OURENSE,241.8,3.3483870967741933,1.7967741935483872,-7.2825,42.339444444444446
01/2014,1690A,OURENSE,OURENSE,189.9,1.441935483870968,1.4129032258064516,-7.859722222222222,42.32527777777778
01/2014,1700X,O CARBALLIÑO,OURENSE,280.8,1.0225806451612902,,-8.092500000000001,42.421388888888885
01/2014,1735X,XINZO DE LIMIA,OURENSE,164.8,2.9551724137931035,,-7.733611111111111,42.07916666666667
01/2014,2030,SORIA,SORIA,66.8,3.167741935483871,2.735483870967742,-2.4830555555555556,41.775
01/2014,2117D,ARANDA DE DUERO,BURGOS,49.4,2.703225806451613,1.8225806451612903,-3.742777777777778,41.66583333333333
01/2014,2150H,"LA PINILLA, ESTACIÓN DE ESQUÍ",SEGOVIA,298.2,5.003225806451613,0.6322580645161291,-3.475277777777778,41.19194444444444
01/2014,2235U,CERVERA DE PISUERGA,PALENCIA,132.2,3.429032258064516,2.883870967741936,-4.52,42.870555555555555
01/2014,2298,PALACIOS DE LA SIERRA,BURGOS,0.0,2.9064516129032256,1.7096774193548387,-3.131666666666667,41.959722222222226
01/2014,2331,BURGOS AEROPUERTO,BURGOS,65.7,4.925806451612903,1.7645161290322582,-3.6213888888888888,42.356944444444444
01/2014,2374X,CARRIÓN DE LOS CONDES,PALENCIA,34.2,2.3964285714285714,3.1964285714285716,-4.617222222222223,42.350833333333334
01/2014,2400E,AUTILLA DEL PINO,PALENCIA,42.3,5.774193548387097,,-4.602777777777778,41.995555555555555
01/2014,2422,VALLADOLID,VALLADOLID,79.8,2.574193548387097,2.661290322580645,-4.754444444444444,41.64083333333333
01/2014,2444,ÁVILA,AVILA,46.8,3.4741935483870967,2.851612903225807,-4.679722222222223,40.659166666666664
01/2014,2462,PUERTO DE NAVACERRADA,MADRID,294.3,5.119354838709677,1.2774193548387098,-4.010555555555555,40.793055555555554
01/2014,2465,SEGOVIA,SEGOVIA,84.0,3.674193548387097,1.6161290322580646,-4.126388888888888,40.945277777777775
01/2014,2491C,"LA COVATILLA, ESTACIÓN DE ESQUÍ",SALAMANCA,268.2,5.741666666666667,2.335483870967742,-5.69,40.355000000000004
01/2014,2503X,OLMEDO,VALLADOLID,57.800000000000004,2.6956521739130435,,-4.686944444444444,41.325833333333335
01/2014,2539,VALLADOLID AEROPUERTO,VALLADOLID,76.2,5.125806451612903,2.838709677419355,-4.855555555555555,41.71194444444445
01/2014,2614,ZAMORA,ZAMORA,57.2,2.106451612903226,1.929032258064516,-5.735277777777778,41.51555555555556
01/2014,2630X,PUERTO DE SAN ISIDRO,LEON,162.0,5.455555555555556,1.2903225806451613,-5.376944444444444,43.06222222222222
01/2014,2661,"LEÓN, VIRGEN DEL CAMINO",LEON,66.0,3.667741935483871,3.57741935483871,-5.651111111111112,42.58833333333334
01/2014,2737E,LAGUNAS DE SOMOZA,LEON,50.2,3.903225806451613,,-6.196666666666667,42.3775
01/2014,2755X,BENAVENTE,ZAMORA,56.0,2.764516129032258,3.2774193548387096,-5.666666666666667,42.01083333333333
01/2014,2775X,VILLARDECIERVOS,ZAMORA,135.0,3.8161290322580643,3.6516129032258067,-6.279722222222222,41.94138888888889
01/2014,2811A,NAVARREDONDA DE GREDOS,AVILA,68.0,1.6741935483870967,,-5.143055555555556,40.35055555555556
01/2014,2867,SALAMANCA AEROPUERTO,SALAMANCA,53.6,4.541935483870968,2.8161290322580643,-5.498333333333333,40.95944444444445
01/2014,2870,SALAMANCA,SALAMANCA,50.8,3.07741935483871,,-5.662222222222223,40.9575
01/2014,2916A,VITIGUDINO,SALAMANCA,107.2,5.3,2.4833333333333334,-6.437777777777778,41.01138888888889
01/2014,2946X,SAELICES EL CHICO,SALAMANCA,59.6,3.3096774193548386,2.806451612903226,-6.6,40.635
01/2014,3013,MOLINA DE ARAGÓN,GUADALAJARA,40.6,2.390322580645161,2.7451612903225806,-1.8788888888888888,40.84166666666667
01/2014,3044X,CAÑIZARES,CUENCA,145.8,,,-2.15,40.530277777777776
01/2014,3094B,TARANCÓN,CUENCA,47.2,3.609677419354839,3.4612903225806453,-3.0213888888888887,40.01138888888889
01/2014,3100B,ARANJUEZ,MADRID,60.9,1.5516129032258066,,-3.546111111111111,40.06722222222223
01/2014,3110C,BUITRAGO DEL LOZOYA,MADRID,101.8,2.1870967741935483,,-3.613611111111111,41.00694444444444
01/2014,3111D,SOMOSIERRA,MADRID,123.1,2.152173913043478,,-3.5802777777777774,41.135555555555555
01/2014,3129,MADRID AEROPUERTO,MADRID,64.8,4.0,3.141935483870968,-3.5555555555555554,40.46666666666667
01/2014,3130C,SIGÜENZA,GUADALAJARA,14.999999999999998,,1.9607142857142856,-2.618055555555556,41.08638888888889
01/2014,3168C,"GUADALAJARA, EL SERRANILLO",GUADALAJARA,3.6,,,-3.1733333333333333,40.659166666666664
01/2014,3168D,GUADALAJARA,GUADALAJARA,73.2,2.8548387096774195,3.064516129032258,-3.15,40.63027777777778
01/2014,3175,TORREJÓN DE ARDOZ,MADRID,66.8,3.1258064516129034,3.3419354838709676,-3.443611111111111,40.48861111111111
01/2014,3191E,COLMENAR VIEJO,MADRID,106.9,3.141935483870968,2.7870967741935484,-3.765,40.69611111111111
01/2014,3194U,"MADRID, CIUDAD UNIVERSITARIA",MADRID,61.4,1.7580645161290323,,-3.7241666666666666,40.45166666666667
01/2014,3195,"MADRID, RETIRO",MADRID,63.7,2.148387096774193,,-3.6780555555555554,40.411944444444444
01/2014,3196,"MADRID, CUATRO VIENTOS",MADRID,62.6,3.661290322580645,3.9645161290322584,-3.786111111111111,40.37555555555556
01/2014,3200,GETAFE,MADRID,51.6,4.112903225806452,3.8774193548387097,-3.7222222222222223,40.29944444444444
01/2014,3260B,TOLEDO,TOLEDO,42.6,3.390322580645161,3.9935483870967743,-4.045277777777778,39.88472222222222
01/2014,3266A,PUERTO ALTO DEL LEÓN,MADRID,142.5,4.776,,-4.141944444444444,40.70638888888889
01/2014,3298X,SAN PABLO DE LOS MONTES,TOLEDO,133.8,3.7774193548387096,,-4.350555555555555,39.54694444444444
01/2014,3338,ROBLEDO DE CHAVELA,MADRID,34.0,,,-4.25,40.42777777777778
01/2014,3365A,TALAVERA DE LA REINA,TOLEDO,91.4,2.814285714285714,,-4.863611111111111,39.95861111111111
01/2014,3391,SOTILLO DE LA ADRADA,AVILA,97.8,1.467741935483871,,-4.590833333333333,40.28861111111111
01/2014,3434X,NAVALMORAL DE LA MATA,CACERES,128.4,3.3419354838709676,4.493548387096775,-5.5825,39.94583333333333
01/2014,3463X,TRUJILLO,CACERES,0.8,3.12,,-5.854166666666666,39.4825
01/2014,3469A,CÁCERES,CACERES,83.9,4.119354838709677,3.8096774193548386,-6.338888888888889,39.47138888888889
01/2014,3519X,PLASENCIA,CACERES,143.4,2.04,,-6.085833333333333,40.043055555555554
01/2014,3526X,CORIA,CACERES,94.6,3.309677419354839,3.9612903225806453,-6.5575,40.00361111111111
01/2014,3576X,VALENCIA DE ALCÁNTARA,CACERES,52.699999999999996,3.416129032258065,,-7.231111111111111,39.414722222222224
01/2014,4061X,QUINTANAR DE LA ORDEN,TOLEDO,48.5,1.5862068965517242,,-3.0483333333333333,39.59722222222222
01/2014,4067,MADRIDEJOS,TOLEDO,15.8,4.642857142857143,5.253333333333333,-3.5283333333333333,39.49194444444444
01/2014,4103X,TOMELLOSO,CIUDAD REAL,0.0,,5.733333333333333,-3.0075,39.16916666666666
01/2014,4121,CIUDAD REAL,CIUDAD REAL,42.0,2.270967741935484,3.92258064516129,-3.9202777777777778,38.98916666666667
01/2014,4147X,VALDEPEÑAS,CIUDAD REAL,45.4,2.396774193548387,3.138709677419355,-3.391388888888889,38.75055555555556
01/2014,4148,VISO DEL MARQUÉS,CIUDAD REAL,64.3,3.32,,-3.5666666666666664,38.518055555555556
01/2014,4220X,PUEBLA DE DON RODRIGO,CIUDAD REAL,52.699999999999996,1.472,,-4.621944444444445,39.08361111111111
01/2014,4244X,HERRERA DEL DUQUE,BADAJOZ,42.199999999999996,2.6199999999999997,3.683333333333333,-5.062222222222222,39.169444444444444
01/2014,4267X,HINOJOSA DEL DUQUE,CORDOBA,57.9,3.670967741935484,,-5.1211111111111105,38.49861111111111
01/2014,4358X,DON BENITO,BADAJOZ,48.4,2.519354838709677,4.325806451612903,-5.880555555555556,38.955555555555556
01/2014,4386B,LLERENA,BADAJOZ,48.0,5.164516129032258,4.34516129032258,-6.016944444444444,38.23166666666667
01/2014,4410X,MÉRIDA,BADAJOZ,55.5,2.9733333333333336,,-6.385555555555556,38.91583333333333
01/2014,4452,BADAJOZ AEROPUERTO,BADAJOZ,58.8,3.8806451612903223,4.109677419354839,-6.813888888888889,38.88333333333333
01/2014,4511C,JEREZ DE LOS CABALLEROS,BADAJOZ,31.2,4.543333333333334,3.25,-6.765,38.29861111111111
01/2014,4549Y,AYAMONTE,HUELVA,44.8,2.2516129032258063,,-7.3950000000000005,37.19472222222222
01/2014,4560Y,ALAJAR,HUELVA,47.8,3.73125,,-6.675000000000001,37.868611111111115
01/2014,4642E,"HUELVA, RONDA ESTE",HUELVA,62.2,3.0483870967741935,4.8933333333333335,-6.911666666666667,37.27833333333333
01/2014,5000C,CEUTA,CEUTA,99.0,3.0290322580645164,4.17741935483871,-5.3469444444444445,35.88861111111111
01/2014,5038X,CAZORLA,JAEN,0.0,0.9741935483870967,,-3.003888888888889,37.91583333333333
01/2014,5047E,BAZA,GRANADA,41.0,3.69,4.819999999999999,-2.735,37.505833333333335
01/2014,5051X,HUÉSCAR,GRANADA,27.6,2.736,4.505882352941177,-2.6527777777777777,37.861111111111114
01/2014,5181D,ARROYO DEL OJANCO,JAEN,85.9,2.2,,-2.8897222222222223,38.31472222222222
01/2014,5192,VILLARRODRIGO,JAEN,118.8,2.492857142857143,2.4172413793103447,-2.6375,38.48916666666667
01/2014,5246,SANTA ELENA,JAEN,111.0,2.390322580645161,3.02258064516129,-3.5352777777777775,38.34444444444445
01/2014,5270,"JAÉN, INSTITUTO",JAEN,76.8,,,-3.7888888888888888,37.77638888888889
01/2014,5270B,JAÉN,JAEN,84.4,2.6451612903225805,3.893548387096774,-3.8091666666666666,37.777499999999996
01/2014,5298X,ANDÚJAR,JAEN,56.199999999999996,1.6333333333333335,,-4.0633333333333335,38.02305555555555
01/2014,5390Y,VILLANUEVA DE CÓRDOBA,CORDOBA,80.6,3.1870967741935483,,-4.608888888888888,38.33305555555556
01/2014,5402,CÓRDOBA AEROPUERTO,CORDOBA,88.6,2.225806451612903,4.300000000000001,-4.846666666666667,37.848888888888894
01/2014,5427X,DOÑA MENCÍA,CORDOBA,72.7,3.51875,,-4.353888888888888,37.55611111111111
01/2014,5514,GRANADA BASE AÉREA,GRANADA,59.5,1.725,4.712903225806452,-3.631388888888889,37.13722222222222
01/2014,5530E,GRANADA AEROPUERTO,GRANADA,75.4,1.8580645161290323,4.754838709677419,-3.789722222222222,37.19027777777777
01/2014,5582A,LOJA,GRANADA,0.0,0.7,,-4.152777777777779,37.16111111111111
01/2014,5612B,LA RODA DE ANDALUCÍA,SEVILLA,73.4,2.7774193548387096,,-4.77,37.19444444444444
01/2014,5641X,ÉCIJA,SEVILLA,1.6,2.94,,-5.085,37.51611111111111
01/2014,5704B,CAZALLA DE LA SIERRA,SEVILLA,101.5,2.1870967741935483,,-5.769722222222222,37.92638888888889
01/2014,5783,SEVILLA AEROPUERTO,SEVILLA,77.6,3.0032258064516126,5.290322580645161,-5.879166666666667,37.416666666666664
01/2014,5796,MORÓN DE LA FRONTERA,SEVILLA,76.6,2.2,4.780645161290322,-5.6113888888888885,37.16444444444444
01/2014,5860E,"MOGUER, EL ARENOSILLO",HUELVA,50.6,2.3782608695652177,,-6.7380555555555555,37.09805555555556
01/2014,5910,"ROTA, BASE NAVAL",CADIZ,61.2,3.6838709677419357,4.809677419354839,-6.3325,36.638888888888886
01/2014,5911A,GRAZALEMA,CADIZ,479.4,2.2483870967741937,,-5.3741666666666665,36.760555555555555
01/2014,5960,JEREZ DE LA FRONTERA AEROPUERTO,CADIZ,77.8,3.2419354838709675,5.012903225806451,-6.055833333333333,36.75055555555556
01/2014,5972X,SAN FERNANDO,CADIZ,52.6,3.2096774193548385,,-6.205555555555556,36.46555555555556
01/2014,5973,CÁDIZ,CADIZ,64.7,4.02258064516129,5.1466666666666665,-6.257777777777778,36.499722222222225
01/2014,5995B,VEJER DE LA FRONTERA,CADIZ,116.0,3.4870967741935486,,-5.965,36.245555555555555
01/2014,6000A,MELILLA,MELILLA,32.0,4.070967741935484,5.764516129032257,-2.956388888888889,35.27638888888889
01/2014,6001,TARIFA,CADIZ,130.3,5.54516129032258,,-5.598888888888888,36.013888888888886
01/2014,6058I,ESTEPONA,MALAGA,50.4,3.196774193548387,5.622580645161291,-5.155,36.41694444444444
01/2014,6084X,FUENGIROLA,MALAGA,46.9,1.7814814814814814,,-4.618333333333334,36.53861111111111
01/2014,6106X,ANTEQUERA,MALAGA,60.1,1.8903225806451613,,-4.748333333333333,37.029444444444444
01/2014,6155A,MÁLAGA AEROPUERTO,MALAGA,40.2,4.354838709677419,5.229032258064516,-4.482222222222222,36.66611111111111
01/2014,6156X,"MÁLAGA, CENTRO METEOROLÓGICO",MALAGA,42.0,2.5806451612903225,,-4.4816666666666665,36.717777777777776
01/2014,6205X,TORROX,MALAGA,120.3,3.7870967741935484,,-3.957222222222222,36.72638888888889
01/2014,6268X,MOTRIL,GRANADA,0.0,2.893103448275862,,-3.5302777777777776,36.72277777777778
01/2014,6277B,ADRA,ALMERIA,0.0,2.4517241379310346,,-3.0205555555555557,36.74722222222222
01/2014,6293X,ROQUETAS DE MAR,ALMERIA,25.200000000000003,4.983870967741935,6.267741935483872,-2.7016666666666667,36.68694444444444
01/2014,6302A,ABLA,ALMERIA,9.0,1.9161290322580644,,-2.78,37.14138888888889
01/2014,6325O,ALMERÍA AEROPUERTO,ALMERIA,7.5,4.154838709677419,6.206451612903226,-2.3569444444444447,36.84638888888889
01/2014,6367B,HUÉRCAL-OVERA,ALMERIA,61.7,2.8,,-1.9436111111111112,37.39055555555556
01/2014,6381,ALBORÁN,ALMERIA,0.0,9.525,,-3.036111111111111,35.93833333333333
01/2014,7002Y,ÁGUILAS,MURCIA,16.400000000000002,2.467741935483871,6.109677419354839,-1.5869444444444445,37.41722222222222
01/2014,7012C,CARTAGENA,MURCIA,13.6,1.6766666666666665,,-0.9877777777777778,37.60111111111111
01/2014,7031,SAN JAVIER AEROPUERTO,MURCIA,13.8,,5.6,-0.8033333333333333,37.788888888888884
01/2014,7031X,SAN JAVIER AEROPUERTO,MURCIA,13.700000000000001,3.416129032258065,5.854838709677419,-0.8058333333333334,37.77833333333333
01/2014,7096B,HELLÍN,ALBACETE,17.1,3.503448275862069,,-1.7030555555555555,38.54194444444444
01/2014,7119B,CARAVACA DE LA CRUZ,MURCIA,5.6000000000000005,2.5516129032258066,3.9193548387096775,-1.8772222222222223,38.1025
01/2014,7145D,CIEZA,MURCIA,4.8,3.06,,-1.3805555555555555,38.23277777777778
01/2014,7178I,MURCIA,MURCIA,9.1,2.5677419354838706,5.951612903225806,-1.1708333333333334,38.00194444444445
01/2014,7209,LORCA,MURCIA,1.4,1.1870967741935483,,-1.6872222222222222,37.65472222222222
01/2014,7228,"ALCANTARILLA, BASE AÉREA",MURCIA,9.3,2.2129032258064516,5.922580645161291,-1.2286111111111113,37.95777777777778
01/2014,7247X,EL PINÓS/PINOSO,ALICANTE,9.200000000000001,2.2838709677419353,,-1.0380555555555557,38.39972222222222
01/2014,7275C,YECLA,MURCIA,10.6,4.729032258064516,5.393548387096774,-1.159722222222222,38.60166666666667
01/2014,8019,ALICANTE-ELCHE AEROPUERTO,ALICANTE,5.4,4.225806451612903,5.209677419354839,-0.5708333333333333,38.282777777777774
01/2014,8025,ALACANT/ALICANTE,ALICANTE,2.5999999999999996,2.3483870967741933,5.858064516129032,-0.49416666666666664,38.3725
01/2014,8050X,JÁVEA/ XÀBIA,ALICANTE,15.2,3.167741935483871,4.258064516129032,0.16777777777777778,38.78361111111111
01/2014,8058X,OLIVA,VALENCIA,9.2,2.106451612903226,,-0.09583333333333333,38.928888888888885
01/2014,8096,CUENCA,CUENCA,78.6,1.7161290322580647,2.935483870967742,-2.1319444444444446,40.06722222222223
01/2014,8175,ALBACETE BASE AÉREA,ALBACETE,20.7,4.809677419354839,4.548387096774194,-1.856388888888889,38.95416666666667
01/2014,8177A,CHINCHILLA,ALBACETE,28.5,5.074193548387097,,-1.66,38.93583333333333
01/2014,8178D,ALBACETE,ALBACETE,25.3,2.035483870967742,3.9809523809523806,-1.8627777777777779,39.005833333333335
01/2014,8293X,XÀTIVA,VALENCIA,8.600000000000001,3.051612903225806,4.864516129032259,-0.5236111111111111,39.001666666666665
01/2014,8309X,UTIEL,VALENCIA,14.8,4.690322580645161,4.433333333333334,-1.2447222222222223,39.57555555555556
01/2014,8325X,POLINYÀ DE XÚQUER,VALENCIA,22.0,1.75,,-0.3719444444444444,39.18472222222222
01/2014,8368U,TERUEL,TERUEL,25.200000000000003,2.1903225806451614,3.6225806451612903,-1.1241666666666668,40.35055555555556
01/2014,8414A,VALENCIA AEROPUERTO,VALENCIA,4.2,5.017241379310345,3.096774193548387,-0.4747222222222222,39.485
01/2014,8416,VALÈNCIA,VALENCIA,6.0,,4.809677419354839,-0.3663888888888889,39.480555555555554
01/2014,8416Y,"VALÈNCIA, VIVEROS",VALENCIA,6.0,1.596774193548387,,-0.3663888888888889,39.480555555555554
01/2014,8489X,VILLAFRANCA DEL CID/VILLAFRANCA,CASTELLON,11.8,5.293548387096774,5.093548387096774,-0.25583333333333336,40.43333333333333
01/2014,8500A,CASTELLÓ - ALMASSORA,CASTELLON,18.0,2.357142857142857,4.610714285714286,-0.07194444444444445,39.95722222222223
01/2014,8523X,VINARÒS,CASTELLON,33.5,2.383870967741936,,0.4297222222222222,40.55416666666667
01/2014,9001D,REINOSA,CANTABRIA,70.8,4.335483870967742,,-4.160555555555556,42.99194444444444
01/2014,9019B,"VALDERREDIBLE, POLIENTES   ",CANTABRIA,46.5,2.6193548387096777,,-3.933888888888889,42.80638888888888
01/2014,9051,MEDINA DE POMAR,BURGOS,57.0,2.770967741935484,1.9161290322580644,-3.4827777777777778,42.919999999999995
01/2014,9091O,FORONDA-TXOKIZA,ARABA/ALAVA,132.6,3.903225806451613,2.070967741935484,-2.735,42.88194444444444
01/2014,9091R,VITORIA-GASTEIZ AEROPUERTO,ARABA/ALAVA,120.6,3.8548387096774195,2.270967741935484,-2.7327777777777778,42.871944444444445
01/2014,9111,BELORADO,BURGOS,0.0,3.0290322580645164,,-3.1702777777777778,42.42111111111111
01/2014,9170,"LOGROÑO, AEROPUERTO",LA RIOJA,34.3,2.6129032258064515,2.57741935483871,-2.331111111111111,42.452222222222225
01/2014,9201K,JACA,HUESCA,116.4,1.9161290322580644,,-0.5469444444444445,42.57888888888889
01/2014,9208E,ARAGÜÉS DEL PUERTO,HUESCA,181.79999999999998,1.9280000000000002,,-0.6727777777777777,42.70861111111111
01/2014,9244X,SOS DEL REY CATÓLICO,ZARAGOZA,34.2,2.1727272727272724,,-1.213611111111111,42.490833333333335
01/2014,9262,PAMPLONA,NAVARRA,119.4,,,-1.6383333333333332,42.81777777777778
01/2014,9263D,"PAMPLONA, AEROPUERTO",NAVARRA,76.6,2.3741935483870966,1.9241379310344826,-1.65,42.776944444444446
01/2014,9263X,"ARANGUREN, ILUNDAIN  ",NAVARRA,128.6,1.625,,-1.5325,42.77611111111111
01/2014,9283X,CADREITA,NAVARRA,23.7,3.3451612903225807,,-1.7113888888888888,42.206944444444446
01/2014,9294E,"BARDENAS REALES, BASE AÉREA",NAVARRA,19.6,4.412903225806452,,-1.475277777777778,42.198611111111106
01/2014,9381I,CALAMOCHA,TERUEL,32.7,2.606451612903226,3.661290322580645,-1.2933333333333332,40.92611111111111
01/2014,9390,DAROCA,ZARAGOZA,28.0,1.6129032258064515,3.229032258064516,-1.41,41.114444444444445
01/2014,9394X,CALATAYUD,ZARAGOZA,23.2,3.0161290322580645,,-1.6452777777777778,41.33111111111111
01/2014,9434,"ZARAGOZA, AEROPUERTO",ZARAGOZA,29.0,3.725806451612903,3.732258064516129,-1.0041666666666667,41.660555555555554
01/2014,9434P,"ZARAGOZA, VALDESPARTERA",ZARAGOZA,27.6,3.583870967741935,3.7161290322580647,-0.9347222222222222,41.62111111111111
01/2014,9563X,CASTELLFORT,CASTELLON,19.900000000000002,,,-0.18666666666666665,40.49861111111111
01/2014,9569A,CALANDA,TERUEL,19.2,2.733333333333333,,-0.23777777777777778,40.946666666666665
01/2014,9573X,ALCAÑIZ,TERUEL,10.9,2.2580645161290325,,-0.14166666666666666,41.058055555555555
01/2014,9576C,BUJARALOZ,ZARAGOZA,0.0,4.45,,-0.17444444444444443,41.5225
01/2014,9585,LA MOLINA,GIRONA,59.6,1.9096774193548387,3.793548387096774,1.9394444444444445,42.3325
01/2014,9619,LA SEU D'URGELL,LLEIDA,9.7,0.3666666666666667,,1.4630555555555556,42.35472222222222
01/2014,9698U,TALARN,LLEIDA,28.8,1.795,5.247619047619048,0.8652777777777777,42.20527777777778
01/2014,9720X,TÀRREGA,LLEIDA,46.2,0.7612903225806452,,1.1494444444444445,41.650555555555556
01/2014,9771C,LLEIDA,LLEIDA,35.5,3.109677419354839,3.8096774193548386,0.5980555555555556,41.626111111111115
01/2014,9784P,BIELSA,HUESCA,181.79999999999998,1.7322580645161292,,0.22472222222222224,42.63
01/2014,9814A,TORLA,HUESCA,155.1,0.535483870967742,,-0.11166666666666668,42.626666666666665
01/2014,9898,"HUESCA, AEROPUERTO",HUESCA,41.199999999999996,5.016129032258065,4.148387096774194,-0.32555555555555554,42.08444444444444
01/2014,9981A,ESTACIÓN DE TORTOSA (ROQUETES),TARRAGONA,45.0,2.8419354838709676,3.838709677419355,0.49333333333333335,40.82027777777778
01/2014,9987P,SANT JAUME D'ENVEJA,TARRAGONA,12.299999999999999,2.7714285714285714,,0.81,40.69916666666666
01/2014,9990X,"NAUT ARAN, ARTIES ",LLEIDA,146.3,,,0.8769444444444445,42.70027777777778
01/2014,B013X,"ESCORCA, LLUC",ILLES BALEARS,67.5,0.8620689655172413,,2.8858333333333333,39.82333333333334
01/2014,B228,"PALMA, PUERTO",ILLES BALEARS,41.8,1.3838709677419354,4.354838709677419,2.625277777777778,39.555277777777775
01/2014,B248,"SIERRA DE ALFABIA, BUNYOLA",ILLES BALEARS,0.0,7.212903225806452,,2.7130555555555556,39.735
01/2014,B278,"PALMA DE MALLORCA, AEROPUERTO",ILLES BALEARS,39.300000000000004,3.403225806451613,3.925806451612903,2.736666666666667,39.56083333333333
01/2014,B346X,PORRERES,ILLES BALEARS,35.3,2.2580645161290325,,3.0191666666666666,39.52166666666667
01/2014,B434X,PORTOCOLOM  ,ILLES BALEARS,42.800000000000004,3.803225806451613,4.696774193548387,3.2716666666666665,39.41444444444444
01/2014,B569X,CAPDEPERA,ILLES BALEARS,38.4,4.742307692307692,,3.4780555555555557,39.71666666666667
01/2014,B691Y,SA POBLA,ILLES BALEARS,25.6,2.429032258064516,4.467741935483871,3.0166666666666666,39.74916666666667
01/2014,B893,"MENORCA, AEROPUERTO",ILLES BALEARS,71.9,4.064516129032258,3.064516129032258,4.2155555555555555,39.85472222222222
01/2014,B954,"IBIZA, AEROPUERTO",ILLES BALEARS,26.3,4.1,4.416129032258064,1.3844444444444444,38.87638888888889
01/2014,C029O,LANZAROTE AEROPUERTO,LAS PALMAS,11.3,5.432258064516129,6.090322580645162,-13.600277777777777,28.951944444444443
01/2014,C129Z,TAZACORTE,STA. CRUZ DE TENERIFE,11.299999999999999,1.9193548387096775,,-17.915277777777778,28.59583333333333
01/2014,C139E,LA PALMA AEROPUERTO,STA. CRUZ DE TENERIFE,18.5,5.645161290322581,5.174193548387097,-17.755,28.633055555555558
01/2014,C249I,FUERTEVENTURA AEROPUERTO,LAS PALMAS,10.1,6.267741935483872,5.729032258064516,-13.863055555555555,28.44472222222222
01/2014,C329Z,SAN SEBASTIÁN DE LA GOMERA,STA. CRUZ DE TENERIFE,17.9,3.696774193548387,,-17.11138888888889,28.08972222222222
01/2014,C429I,TENERIFE SUR AEROPUERTO,STA. CRUZ DE TENERIFE,25.499999999999996,5.919354838709677,5.45483870967742,-16.561111111111114,28.046944444444446
01/2014,C430E,IZAÑA,STA. CRUZ DE TENERIFE,60.2,9.115384615384615,7.338709677419355,-16.499444444444446,28.30888888888889
01/2014,C439J,GÜÍMAR,STA. CRUZ DE TENERIFE,24.5,,,-16.38222222222222,28.31833333333333
01/2014,C447A,TENERIFE NORTE AEROPUERTO,STA. CRUZ DE TENERIFE,152.2,5.463333333333334,3.9129032258064513,-16.329444444444444,28.4775
01/2014,C449C,STA.CRUZ DE TENERIFE,STA. CRUZ DE TENERIFE,57.9,2.364516129032258,6.561290322580645,-16.255277777777778,28.46333333333333
01/2014,C459Z,PUERTO DE LA CRUZ,STA. CRUZ DE TENERIFE,101.2,2.667741935483871,,-16.548055555555557,28.418055555555558
01/2014,C619I,LA ALDEA DE SAN NICOLÁS,LAS PALMAS,53.0,2.8193548387096774,,-15.81388888888889,28.000833333333333
01/2014,C629X,"MOGÁN, PUERTO",LAS PALMAS,19.5,2.9419354838709677,,-15.764166666666666,27.81638888888889
01/2014,C649I,GRAN CANARIA AEROPUERTO,LAS PALMAS,17.9,7.112903225806452,5.674193548387097,-15.395277777777777,27.91777777777778
01/2014,C659H,"LAS PALMAS DE GRAN CANARIA, SAN CRISTOBAL",LAS PALMAS,38.3,3.1333333333333333,,-15.416111111111112,28.08972222222222
01/2014,C659M,"LAS PALMAS DE GRAN CANARIA, PL. DE LA FERIA",LAS PALMAS,32.0,2.148387096774193,,-15.421388888888888,28.113055555555558
01/2014,C689E,MASPALOMAS,LAS PALMAS,23.6,3.2451612903225806,,-15.595833333333333,27.735833333333336
01/2014,C839I,TEGUISE,LAS PALMAS,15.4,3.953333333333333,,-13.501944444444444,29.231944444444444
01/2014,C929I,HIERRO AEROPUERTO,STA. CRUZ DE TENERIFE,29.5,7.113333333333333,5.861290322580645,-17.88888888888889,27.81888888888889
02/2014,0002I,VANDELLÒS  ,TARRAGONA,17.7,1.9142857142857144,,0.8713888888888889,40.95805555555556
02/2014,0016A,REUS AEROPUERTO,TARRAGONA,21.4,3.4464285714285716,5.046428571428572,1.163611111111111,41.144999999999996
02/2014,0076,BARCELONA AEROPUERTO,BARCELONA,25.2,4.932142857142857,3.8964285714285714,2.0700000000000003,41.29277777777778
02/2014,0149X,MANRESA,BARCELONA,25.2,2.1964285714285716,5.542857142857143,1.840277777777778,41.72
02/2014,0200E,"BARCELONA, FABRA",BARCELONA,22.8,4.675,6.339285714285714,2.1241666666666665,41.41833333333333
02/2014,0201D,BARCELONA,BARCELONA,22.0,3.4285714285714284,,2.2,41.39055555555556
02/2014,0229I,SABADELL AEROPUERTO,BARCELONA,20.2,2.5962962962962965,,2.1030555555555557,41.52361111111111
02/2014,0252D,ARENYS DE MAR,BARCELONA,36.0,1.737037037037037,,2.54,41.587500000000006
02/2014,0255B,SANTA SUSANNA,BARCELONA,57.9,0.7,,2.6969444444444446,41.65083333333333
02/2014,0324A,RIPOLL,GIRONA,16.9,1.3192307692307692,,2.196111111111111,42.19138888888889
02/2014,0367,GIRONA AEROPUERTO,GIRONA,35.6,3.3035714285714284,6.053571428571429,2.763333333333333,41.91166666666666
02/2014,0372C,PORQUERES,GIRONA,33.3,1.907142857142857,,2.763611111111111,42.10444444444445
02/2014,1002Y,"BAZTAN, IRURITA ",NAVARRA,174.9,1.5518518518518518,,-1.5430555555555554,43.13583333333333
02/2014,1014,"HONDARRIBIA, MALKARROA",GIPUZKOA,195.6,4.860714285714286,3.317857142857143,-1.7922222222222222,43.356944444444444
02/2014,1014A,DONOSTIA / SAN SEBASTIÁN AEROPUERTO,GIPUZKOA,196.9,4.871428571428572,3.307142857142857,-1.7922222222222222,43.356944444444444
02/2014,1024E,"DONOSTIA / SAN SEBASTIÁN, IGELDO",GIPUZKOA,178.6,6.810714285714285,3.6185185185185187,-2.041111111111111,43.30638888888888
02/2014,1037Y,ZUMARRAGA,GIPUZKOA,45.2,2.3038461538461537,,-2.3175,43.080000000000005
02/2014,1041A,ZUMAIA,GIPUZKOA,72.4,5.174074074074074,,-2.2511111111111113,43.30222222222222
02/2014,1050J,ELGOIBAR,GIPUZKOA,146.6,2.242857142857143,,-2.413333333333333,43.20944444444445
02/2014,1055B,LEKEITIO,BIZKAIA,95.4,5.742857142857143,,-2.5102777777777776,43.37694444444445
02/2014,1057B,MATXITXAKO,BIZKAIA,167.2,6.95,,-2.7527777777777778,43.45388888888889
02/2014,1059X,PUNTA GALEA,BIZKAIA,90.0,3.8000000000000003,,-3.0216666666666665,43.375
02/2014,1078I,GÜEÑES,BIZKAIA,166.5,2.9499999999999997,,-3.104722222222222,43.20333333333333
02/2014,1082,BILBAO AEROPUERTO,BIZKAIA,120.2,4.728571428571429,2.707142857142857,-2.906388888888889,43.29805555555556
02/2014,1109,SANTANDER AEROPUERTO,CANTABRIA,88.4,,4.021428571428571,-3.8255555555555554,43.42388888888889
02/2014,1111,SANTANDER,CANTABRIA,85.7,6.917857142857143,3.935714285714286,-3.8005555555555555,43.49111111111111
02/2014,1111X,SANTANDER,CANTABRIA,84.3,7.185714285714285,4.396428571428571,-3.8005555555555555,43.49111111111111
02/2014,1159,SAN VICENTE DE LA BARQUERA,CANTABRIA,102.6,3.814285714285714,,-4.392222222222222,43.39333333333333
02/2014,1183X,LLANES,ASTURIAS,77.4,3.4107142857142856,3.4857142857142853,-4.748055555555555,43.42027777777778
02/2014,1207U,"GIJÓN, CAMPUS",ASTURIAS,92.4,3.0518518518518523,,-5.621111111111111,43.52305555555555
02/2014,1208H,"GIJÓN, PUERTO",ASTURIAS,91.6,,4.628571428571428,-5.700833333333334,43.559999999999995
02/2014,1210X,CABO PEÑAS,ASTURIAS,4.2,5.895833333333333,,-5.8486111111111105,43.655833333333334
02/2014,1212E,ASTURIAS AEROPUERTO,ASTURIAS,95.9,5.196428571428571,3.6142857142857143,-6.0441666666666665,43.566944444444445
02/2014,1221D,PAJARES-VALGRANDE,ASTURIAS,86.0,4.796,,-5.776388888888889,42.978611111111114
02/2014,1249I,OVIEDO,ASTURIAS,70.7,3.057142857142857,4.8500000000000005,-5.874166666666667,43.35333333333333
02/2014,1249X,OVIEDO,ASTURIAS,71.0,3.957142857142857,4.889285714285714,-5.874166666666667,43.35333333333333
02/2014,1283U,CABO BUSTO,ASTURIAS,61.4,,4.584615384615384,-6.47,43.56916666666667
02/2014,1351,ESTACA DE BARES,A CORUÑA,101.4,14.814814814814815,3.521428571428572,-7.6850000000000005,43.78611111111111
02/2014,1387,A CORUÑA,A CORUÑA,174.0,5.478571428571429,3.242857142857143,-8.421388888888888,43.365833333333335
02/2014,1387E,A CORUÑA AEROPUERTO,A CORUÑA,146.5,5.685714285714285,3.0,-8.371944444444445,43.30694444444444
02/2014,1393,CABO VILÁN,A CORUÑA,224.2,10.100000000000001,,-9.210833333333333,43.160555555555554
02/2014,1400,FISTERRA,A CORUÑA,146.0,8.5,3.3272727272727276,-9.29138888888889,42.92472222222222
02/2014,1428,SANTIAGO DE COMPOSTELA AEROPUERTO,A CORUÑA,400.9,5.239285714285714,1.842857142857143,-8.410555555555556,42.88805555555555
02/2014,1473A,PADRÓN,A CORUÑA,178.8,3.4352941176470586,,-8.627222222222223,42.73833333333334
02/2014,1475X,SANTIAGO DE COMPOSTELA,A CORUÑA,388.3,1.282142857142857,,-8.555833333333334,42.876111111111115
02/2014,1484C,PONTEVEDRA,PONTEVEDRA,300.3,2.2714285714285714,1.582142857142857,-8.615833333333333,42.43833333333333
02/2014,1495,VIGO AEROPUERTO,PONTEVEDRA,380.5,4.746428571428572,1.1607142857142858,-8.623888888888889,42.23861111111111
02/2014,1505,LUGO AEROPUERTO,LUGO,185.20000000000002,3.6035714285714286,2.75,-7.4575000000000005,43.11138888888889
02/2014,1542,PUERTO DE LEITARIEGOS,ASTURIAS,144.0,5.3130434782608695,2.1481481481481484,-6.4141666666666675,42.994166666666665
02/2014,1549,PONFERRADA,LEON,120.8,2.310714285714286,3.15,-6.6,42.56388888888888
02/2014,1631E,A POBRA DE TRIVES,OURENSE,203.6,3.6761904761904765,2.3333333333333335,-7.2825,42.339444444444446
02/2014,1690A,OURENSE,OURENSE,191.6,2.064285714285714,2.6750000000000003,-7.859722222222222,42.32527777777778
02/2014,1700X,O CARBALLIÑO,OURENSE,267.9,1.3,,-8.092500000000001,42.421388888888885
02/2014,1735X,XINZO DE LIMIA,OURENSE,178.2,3.1142857142857143,,-7.733611111111111,42.07916666666667
02/2014,2030,SORIA,SORIA,79.4,3.9642857142857144,3.857142857142857,-2.4830555555555556,41.775
02/2014,2117D,ARANDA DE DUERO,BURGOS,33.6,3.632142857142857,3.196153846153846,-3.742777777777778,41.66583333333333
02/2014,2150H,"LA PINILLA, ESTACIÓN DE ESQUÍ",SEGOVIA,289.0,6.107142857142857,0.9928571428571429,-3.475277777777778,41.19194444444444
02/2014,2235U,CERVERA DE PISUERGA,PALENCIA,148.4,4.0095238095238095,4.047826086956522,-4.52,42.870555555555555
02/2014,2298,PALACIOS DE LA SIERRA,BURGOS,0.0,3.2392857142857143,1.6629629629629632,-3.131666666666667,41.959722222222226
02/2014,2331,BURGOS AEROPUERTO,BURGOS,70.10000000000001,6.375,3.0749999999999997,-3.6213888888888888,42.356944444444444
02/2014,2374X,CARRIÓN DE LOS CONDES,PALENCIA,58.4,2.9703703703703703,3.5461538461538464,-4.617222222222223,42.350833333333334
02/2014,2400E,AUTILLA DEL PINO,PALENCIA,29.599999999999998,7.010714285714286,,-4.602777777777778,41.995555555555555
02/2014,2422,VALLADOLID,VALLADOLID,58.2,3.207142857142857,4.307142857142857,-4.754444444444444,41.64083333333333
02/2014,2444,ÁVILA,AVILA,22.6,4.364285714285715,4.510714285714285,-4.679722222222223,40.659166666666664
02/2014,2462,PUERTO DE NAVACERRADA,MADRID,195.5,5.925,1.8535714285714284,-4.010555555555555,40.793055555555554
02/2014,2465,SEGOVIA,SEGOVIA,54.0,4.392857142857143,3.442857142857143,-4.126388888888888,40.945277777777775
02/2014,2491C,"LA COVATILLA, ESTACIÓN DE ESQUÍ",SALAMANCA,204.79999999999998,9.785185185185185,2.7740740740740737,-5.69,40.355000000000004
02/2014,2503X,OLMEDO,VALLADOLID,44.2,,,-4.686944444444444,41.325833333333335
02/2014,2539,VALLADOLID AEROPUERTO,VALLADOLID,57.2,6.389285714285714,4.307142857142857,-4.855555555555555,41.71194444444445
02/2014,2614,ZAMORA,ZAMORA,56.6,2.5321428571428575,3.492857142857143,-5.735277777777778,41.51555555555556
02/2014,2630X,PUERTO DE SAN ISIDRO,LEON,5.8,5.990909090909091,3.0454545454545454,-5.376944444444444,43.06222222222222
02/2014,2661,"LEÓN, VIRGEN DEL CAMINO",LEON,64.6,3.9714285714285715,4.482142857142857,-5.651111111111112,42.58833333333334
02/2014,2737E,LAGUNAS DE SOMOZA,LEON,54.0,4.2821428571428575,,-6.196666666666667,42.3775
02/2014,2755X,BENAVENTE,ZAMORA,62.2,3.3464285714285715,4.021428571428571,-5.666666666666667,42.01083333333333
02/2014,2775X,VILLARDECIERVOS,ZAMORA,159.0,4.477777777777778,3.819230769230769,-6.279722222222222,41.94138888888889
02/2014,2811A,NAVARREDONDA DE GREDOS,AVILA,52.2,2.267857142857143,,-5.143055555555556,40.35055555555556
02/2014,2867,SALAMANCA AEROPUERTO,SALAMANCA,48.1,5.5249999999999995,4.139285714285714,-5.498333333333333,40.95944444444445
02/2014,2870,SALAMANCA,SALAMANCA,53.3,3.2285714285714286,,-5.662222222222223,40.9575
02/2014,2916A,VITIGUDINO,SALAMANCA,106.2,5.375,2.025,-6.437777777777778,41.01138888888889
02/2014,2946X,SAELICES EL CHICO,SALAMANCA,88.0,3.689285714285714,3.7285714285714286,-6.6,40.635
02/2014,3013,MOLINA DE ARAGÓN,GUADALAJARA,47.0,2.9892857142857143,3.8535714285714286,-1.8788888888888888,40.84166666666667
02/2014,3044X,CAÑIZARES,CUENCA,142.79999999999998,,,-2.15,40.530277777777776
02/2014,3094B,TARANCÓN,CUENCA,30.8,4.2444444444444445,3.973076923076923,-3.0213888888888887,40.01138888888889
02/2014,3100B,ARANJUEZ,MADRID,48.7,2.164285714285714,,-3.546111111111111,40.06722222222223
02/2014,3110C,BUITRAGO DEL LOZOYA,MADRID,63.6,2.3285714285714287,,-3.613611111111111,41.00694444444444
02/2014,3111D,SOMOSIERRA,MADRID,109.10000000000001,2.5789473684210527,,-3.5802777777777774,41.135555555555555
02/2014,3129,MADRID AEROPUERTO,MADRID,41.6,4.778571428571429,4.035714285714286,-3.5555555555555554,40.46666666666667
02/2014,3130C,SIGÜENZA,GUADALAJARA,77.8,,2.8884615384615384,-2.618055555555556,41.08638888888889
02/2014,3168C,"GUADALAJARA, EL SERRANILLO",GUADALAJARA,41.199999999999996,,,-3.1733333333333333,40.659166666666664
02/2014,3168D,GUADALAJARA,GUADALAJARA,52.0,3.3714285714285714,4.042857142857143,-3.15,40.63027777777778
02/2014,3175,TORREJÓN DE ARDOZ,MADRID,46.9,4.339285714285714,4.507142857142857,-3.443611111111111,40.48861111111111
02/2014,3191E,COLMENAR VIEJO,MADRID,95.5,3.8249999999999997,3.9285714285714284,-3.765,40.69611111111111
02/2014,3194U,"MADRID, CIUDAD UNIVERSITARIA",MADRID,45.0,1.925,,-3.7241666666666666,40.45166666666667
02/2014,3195,"MADRID, RETIRO",MADRID,50.2,2.567857142857143,,-3.6780555555555554,40.411944444444444
02/2014,3196,"MADRID, CUATRO VIENTOS",MADRID,54.9,4.442857142857143,4.675,-3.786111111111111,40.37555555555556
02/2014,3200,GETAFE,MADRID,36.8,4.935714285714285,4.9678571428571425,-3.7222222222222223,40.29944444444444
02/2014,3260B,TOLEDO,TOLEDO,51.4,3.992857142857143,4.696428571428571,-4.045277777777778,39.88472222222222
02/2014,3266A,PUERTO ALTO DEL LEÓN,MADRID,71.9,5.382142857142857,,-4.141944444444444,40.70638888888889
02/2014,3298X,SAN PABLO DE LOS MONTES,TOLEDO,194.4,4.025,,-4.350555555555555,39.54694444444444
02/2014,3338,ROBLEDO DE CHAVELA,MADRID,35.6,,,-4.25,40.42777777777778
02/2014,3365A,TALAVERA DE LA REINA,TOLEDO,80.6,3.4814814814814814,,-4.863611111111111,39.95861111111111
02/2014,3391,SOTILLO DE LA ADRADA,AVILA,119.9,2.06,,-4.590833333333333,40.28861111111111
02/2014,3434X,NAVALMORAL DE LA MATA,CACERES,135.8,3.557142857142857,4.862962962962963,-5.5825,39.94583333333333
02/2014,3463X,TRUJILLO,CACERES,82.0,3.508,,-5.854166666666666,39.4825
02/2014,3469A,CÁCERES,CACERES,114.5,4.275,4.271428571428571,-6.338888888888889,39.47138888888889
02/2014,3519X,PLASENCIA,CACERES,110.2,2.335714285714286,,-6.085833333333333,40.043055555555554
02/2014,3526X,CORIA,CACERES,105.6,3.439285714285714,4.837037037037037,-6.5575,40.00361111111111
02/2014,3576X,VALENCIA DE ALCÁNTARA,CACERES,88.30000000000001,3.4214285714285713,,-7.231111111111111,39.414722222222224
02/2014,4061X,QUINTANAR DE LA ORDEN,TOLEDO,46.7,1.7428571428571427,,-3.0483333333333333,39.59722222222222
02/2014,4067,MADRIDEJOS,TOLEDO,24.599999999999998,4.403703703703704,4.7407407407407405,-3.5283333333333333,39.49194444444444
02/2014,4103X,TOMELLOSO,CIUDAD REAL,60.4,3.286363636363636,3.8333333333333335,-3.0075,39.16916666666666
02/2014,4121,CIUDAD REAL,CIUDAD REAL,78.39999999999999,2.8000000000000003,3.867857142857143,-3.9202777777777778,38.98916666666667
02/2014,4147X,VALDEPEÑAS,CIUDAD REAL,52.2,2.935714285714286,3.688888888888889,-3.391388888888889,38.75055555555556
02/2014,4148,VISO DEL MARQUÉS,CIUDAD REAL,80.3,3.767857142857143,,-3.5666666666666664,38.518055555555556
02/2014,4220X,PUEBLA DE DON RODRIGO,CIUDAD REAL,145.7,2.15,,-4.621944444444445,39.08361111111111
02/2014,4244X,HERRERA DEL DUQUE,BADAJOZ,150.0,3.359259259259259,3.4892857142857143,-5.062222222222222,39.169444444444444
02/2014,4267X,HINOJOSA DEL DUQUE,CORDOBA,102.0,4.3919999999999995,,-5.1211111111111105,38.49861111111111
02/2014,4358X,DON BENITO,BADAJOZ,70.0,3.15,4.171428571428572,-5.880555555555556,38.955555555555556
02/2014,4386B,LLERENA,BADAJOZ,103.6,4.935714285714285,3.9666666666666663,-6.016944444444444,38.23166666666667
02/2014,4410X,MÉRIDA,BADAJOZ,53.800000000000004,3.314285714285714,,-6.385555555555556,38.91583333333333
02/2014,4452,BADAJOZ AEROPUERTO,BADAJOZ,69.0,4.332142857142857,4.578571428571428,-6.813888888888889,38.88333333333333
02/2014,4511C,JEREZ DE LOS CABALLEROS,BADAJOZ,82.6,5.57,1.5320000000000003,-6.765,38.29861111111111
02/2014,4549Y,AYAMONTE,HUELVA,41.7,2.755555555555556,,-7.3950000000000005,37.19472222222222
02/2014,4560Y,ALAJAR,HUELVA,27.4,3.3333333333333335,,-6.675000000000001,37.868611111111115
02/2014,4642E,"HUELVA, RONDA ESTE",HUELVA,41.8,3.957142857142857,5.2555555555555555,-6.911666666666667,37.27833333333333
02/2014,5000C,CEUTA,CEUTA,92.2,3.3249999999999997,6.3,-5.3469444444444445,35.88861111111111
02/2014,5038X,CAZORLA,JAEN,102.39999999999999,1.1392857142857145,,-3.003888888888889,37.91583333333333
02/2014,5047E,BAZA,GRANADA,11.2,4.344444444444445,5.832000000000001,-2.735,37.505833333333335
02/2014,5051X,HUÉSCAR,GRANADA,42.8,3.4956521739130437,5.825,-2.6527777777777777,37.861111111111114
02/2014,5181D,ARROYO DEL OJANCO,JAEN,84.5,2.8708333333333336,,-2.8897222222222223,38.31472222222222
02/2014,5192,VILLARRODRIGO,JAEN,123.60000000000001,2.9423076923076925,2.685714285714286,-2.6375,38.48916666666667
02/2014,5246,SANTA ELENA,JAEN,84.8,2.8,2.95,-3.5352777777777775,38.34444444444445
02/2014,5270,"JAÉN, INSTITUTO",JAEN,78.2,,,-3.7888888888888888,37.77638888888889
02/2014,5270B,JAÉN,JAEN,93.1,3.164285714285714,4.5285714285714285,-3.8091666666666666,37.777499999999996
02/2014,5298X,ANDÚJAR,JAEN,96.5,2.4214285714285713,,-4.0633333333333335,38.02305555555555
02/2014,5390Y,VILLANUEVA DE CÓRDOBA,CORDOBA,100.2,3.542857142857143,,-4.608888888888888,38.33305555555556
02/2014,5402,CÓRDOBA AEROPUERTO,CORDOBA,88.60000000000001,2.685185185185185,4.2785714285714285,-4.846666666666667,37.848888888888894
02/2014,5427X,DOÑA MENCÍA,CORDOBA,109.0,3.5535714285714284,,-4.353888888888888,37.55611111111111
02/2014,5514,GRANADA BASE AÉREA,GRANADA,58.9,2.1631578947368424,4.335714285714285,-3.631388888888889,37.13722222222222
02/2014,5530E,GRANADA AEROPUERTO,GRANADA,85.9,2.2035714285714287,4.496428571428572,-3.789722222222222,37.19027777777777
02/2014,5582A,LOJA,GRANADA,83.5,0.9115384615384615,,-4.152777777777779,37.16111111111111
02/2014,5612B,LA RODA DE ANDALUCÍA,SEVILLA,47.6,3.0714285714285716,,-4.77,37.19444444444444
02/2014,5641X,ÉCIJA,SEVILLA,72.5,2.8480000000000003,,-5.085,37.51611111111111
02/2014,5704B,CAZALLA DE LA SIERRA,SEVILLA,107.0,2.2392857142857143,,-5.769722222222222,37.92638888888889
02/2014,5783,SEVILLA AEROPUERTO,SEVILLA,67.10000000000001,3.517857142857143,4.935714285714285,-5.879166666666667,37.416666666666664
02/2014,5796,MORÓN DE LA FRONTERA,SEVILLA,95.5,2.7964285714285713,4.667857142857143,-5.6113888888888885,37.16444444444444
02/2014,5860E,"MOGUER, EL ARENOSILLO",HUELVA,36.6,3.1,,-6.7380555555555555,37.09805555555556
02/2014,5910,"ROTA, BASE NAVAL",CADIZ,75.9,4.239285714285715,4.878571428571428,-6.3325,36.638888888888886
02/2014,5911A,GRAZALEMA,CADIZ,604.2,1.9964285714285714,,-5.3741666666666665,36.760555555555555
02/2014,5960,JEREZ DE LA FRONTERA AEROPUERTO,CADIZ,77.0,4.207407407407407,4.710714285714286,-6.055833333333333,36.75055555555556
02/2014,5972X,SAN FERNANDO,CADIZ,82.3,3.4285714285714284,,-6.205555555555556,36.46555555555556
02/2014,5973,CÁDIZ,CADIZ,80.7,4.082142857142857,4.521428571428571,-6.257777777777778,36.499722222222225
02/2014,5995B,VEJER DE LA FRONTERA,CADIZ,126.4,4.0,,-5.965,36.245555555555555
02/2014,6000A,MELILLA,MELILLA,31.5,4.242857142857143,7.2749999999999995,-2.956388888888889,35.27638888888889
02/2014,6001,TARIFA,CADIZ,57.0,5.582142857142857,,-5.598888888888888,36.013888888888886
02/2014,6058I,ESTEPONA,MALAGA,48.0,3.4846153846153842,5.6,-5.155,36.41694444444444
02/2014,6084X,FUENGIROLA,MALAGA,56.7,2.1535714285714285,,-4.618333333333334,36.53861111111111
02/2014,6106X,ANTEQUERA,MALAGA,45.3,2.0,,-4.748333333333333,37.029444444444444
02/2014,6155A,MÁLAGA AEROPUERTO,MALAGA,18.4,4.364285714285715,5.317857142857143,-4.482222222222222,36.66611111111111
02/2014,6156X,"MÁLAGA, CENTRO METEOROLÓGICO",MALAGA,11.0,2.814285714285714,,-4.4816666666666665,36.717777777777776
02/2014,6205X,TORROX,MALAGA,23.5,4.832142857142857,,-3.957222222222222,36.72638888888889
02/2014,6268X,MOTRIL,GRANADA,0.0,3.723076923076923,,-3.5302777777777776,36.72277777777778
02/2014,6277B,ADRA,ALMERIA,29.6,3.8958333333333335,,-3.0205555555555557,36.74722222222222
02/2014,6293X,ROQUETAS DE MAR,ALMERIA,13.6,6.339285714285714,6.996428571428572,-2.7016666666666667,36.68694444444444
02/2014,6302A,ABLA,ALMERIA,14.200000000000001,2.157142857142857,,-2.78,37.14138888888889
02/2014,6325O,ALMERÍA AEROPUERTO,ALMERIA,18.3,5.285714285714286,6.9071428571428575,-2.3569444444444447,36.84638888888889
02/2014,6367B,HUÉRCAL-OVERA,ALMERIA,7.7,2.939285714285714,,-1.9436111111111112,37.39055555555556
02/2014,6381,ALBORÁN,ALMERIA,0.0,10.58421052631579,,-3.036111111111111,35.93833333333333
02/2014,7002Y,ÁGUILAS,MURCIA,0.4,2.942857142857143,6.932142857142857,-1.5869444444444445,37.41722222222222
02/2014,7012C,CARTAGENA,MURCIA,0.3,2.3464285714285715,,-0.9877777777777778,37.60111111111111
02/2014,7031,SAN JAVIER AEROPUERTO,MURCIA,0.30000000000000004,,6.439285714285715,-0.8033333333333333,37.788888888888884
02/2014,7031X,SAN JAVIER AEROPUERTO,MURCIA,0.2,4.275,7.192857142857143,-0.8058333333333334,37.77833333333333
02/2014,7096B,HELLÍN,ALBACETE,20.1,3.2760000000000002,,-1.7030555555555555,38.54194444444444
02/2014,7119B,CARAVACA DE LA CRUZ,MURCIA,2.4,2.917857142857143,4.739285714285714,-1.8772222222222223,38.1025
02/2014,7145D,CIEZA,MURCIA,3.7,3.1214285714285714,,-1.3805555555555555,38.23277777777778
02/2014,7178I,MURCIA,MURCIA,2.6,2.6607142857142856,6.917857142857143,-1.1708333333333334,38.00194444444445
02/2014,7209,LORCA,MURCIA,1.1,1.5107142857142857,,-1.6872222222222222,37.65472222222222
02/2014,7228,"ALCANTARILLA, BASE AÉREA",MURCIA,2.0,2.8214285714285716,6.792857142857143,-1.2286111111111113,37.95777777777778
02/2014,7247X,EL PINÓS/PINOSO,ALICANTE,3.9000000000000004,2.3000000000000003,,-1.0380555555555557,38.39972222222222
02/2014,7275C,YECLA,MURCIA,4.8,4.442857142857143,6.292857142857143,-1.159722222222222,38.60166666666667
02/2014,8019,ALICANTE-ELCHE AEROPUERTO,ALICANTE,0.6,4.121428571428572,5.325925925925926,-0.5708333333333333,38.282777777777774
02/2014,8025,ALACANT/ALICANTE,ALICANTE,0.0,2.4214285714285713,6.753571428571428,-0.49416666666666664,38.3725
02/2014,8050X,JÁVEA/ XÀBIA,ALICANTE,1.2000000000000002,3.284615384615385,4.865384615384615,0.16777777777777778,38.78361111111111
02/2014,8058X,OLIVA,VALENCIA,1.5,2.5035714285714286,,-0.09583333333333333,38.928888888888885
02/2014,8096,CUENCA,CUENCA,93.6,2.289285714285714,2.9,-2.1319444444444446,40.06722222222223
02/2014,8175,ALBACETE BASE AÉREA,ALBACETE,19.7,6.017857142857143,6.0,-1.856388888888889,38.95416666666667
02/2014,8177A,CHINCHILLA,ALBACETE,22.3,5.392857142857143,,-1.66,38.93583333333333
02/2014,8178D,ALBACETE,ALBACETE,22.4,2.746153846153846,5.720833333333334,-1.8627777777777779,39.005833333333335
02/2014,8293X,XÀTIVA,VALENCIA,3.1999999999999997,3.5964285714285715,5.677777777777778,-0.5236111111111111,39.001666666666665
02/2014,8309X,UTIEL,VALENCIA,36.4,5.281481481481482,5.02,-1.2447222222222223,39.57555555555556
02/2014,8325X,POLINYÀ DE XÚQUER,VALENCIA,8.4,1.8740740740740742,,-0.3719444444444444,39.18472222222222
02/2014,8368U,TERUEL,TERUEL,27.6,2.7464285714285714,4.769230769230769,-1.1241666666666668,40.35055555555556
02/2014,8414A,VALENCIA AEROPUERTO,VALENCIA,12.6,5.1692307692307695,5.057142857142857,-0.4747222222222222,39.485
02/2014,8416,VALÈNCIA,VALENCIA,11.5,,5.289285714285714,-0.3663888888888889,39.480555555555554
02/2014,8416Y,"VALÈNCIA, VIVEROS",VALENCIA,11.6,2.5464285714285713,,-0.3663888888888889,39.480555555555554
02/2014,8489X,VILLAFRANCA DEL CID/VILLAFRANCA,CASTELLON,31.6,5.075,5.71111111111111,-0.25583333333333336,40.43333333333333
02/2014,8500A,CASTELLÓ - ALMASSORA,CASTELLON,18.0,2.451851851851852,6.237037037037037,-0.07194444444444445,39.95722222222223
02/2014,8523X,VINARÒS,CASTELLON,9.8,2.625,,0.4297222222222222,40.55416666666667
02/2014,9001D,REINOSA,CANTABRIA,69.8,5.496428571428572,,-4.160555555555556,42.99194444444444
02/2014,9019B,"VALDERREDIBLE, POLIENTES   ",CANTABRIA,77.7,3.5785714285714287,,-3.933888888888889,42.80638888888888
02/2014,9051,MEDINA DE POMAR,BURGOS,66.8,3.6535714285714285,4.182142857142857,-3.4827777777777778,42.919999999999995
02/2014,9091O,FORONDA-TXOKIZA,ARABA/ALAVA,84.8,4.339285714285714,4.378571428571428,-2.735,42.88194444444444
02/2014,9091R,VITORIA-GASTEIZ AEROPUERTO,ARABA/ALAVA,81.3,4.328571428571428,4.0964285714285715,-2.7327777777777778,42.871944444444445
02/2014,9111,BELORADO,BURGOS,26.5,3.4857142857142853,,-3.1702777777777778,42.42111111111111
02/2014,9170,"LOGROÑO, AEROPUERTO",LA RIOJA,13.6,3.0407407407407407,4.35,-2.331111111111111,42.452222222222225
02/2014,9201K,JACA,HUESCA,77.0,1.8821428571428573,,-0.5469444444444445,42.57888888888889
02/2014,9208E,ARAGÜÉS DEL PUERTO,HUESCA,91.6,2.46,,-0.6727777777777777,42.70861111111111
02/2014,9244X,SOS DEL REY CATÓLICO,ZARAGOZA,40.6,2.942857142857143,,-1.213611111111111,42.490833333333335
02/2014,9262,PAMPLONA,NAVARRA,92.5,,,-1.6383333333333332,42.81777777777778
02/2014,9263D,"PAMPLONA, AEROPUERTO",NAVARRA,63.8,3.992857142857143,3.7214285714285715,-1.65,42.776944444444446
02/2014,9263X,"ARANGUREN, ILUNDAIN  ",NAVARRA,92.0,2.4678571428571425,,-1.5325,42.77611111111111
02/2014,9283X,CADREITA,NAVARRA,4.4,3.596,,-1.7113888888888888,42.206944444444446
02/2014,9294E,"BARDENAS REALES, BASE AÉREA",NAVARRA,11.6,5.007692307692308,,-1.475277777777778,42.198611111111106
02/2014,9381I,CALAMOCHA,TERUEL,20.0,3.225925925925926,4.6000000000000005,-1.2933333333333332,40.92611111111111
02/2014,9390,DAROCA,ZARAGOZA,16.4,2.0678571428571426,4.25,-1.41,41.114444444444445
02/2014,9394X,CALATAYUD,ZARAGOZA,21.8,4.007692307692308,,-1.6452777777777778,41.33111111111111
02/2014,9434,"ZARAGOZA, AEROPUERTO",ZARAGOZA,16.8,4.7821428571428575,4.928571428571429,-1.0041666666666667,41.660555555555554
02/2014,9434P,"ZARAGOZA, VALDESPARTERA",ZARAGOZA,15.0,4.379166666666666,4.8428571428571425,-0.9347222222222222,41.62111111111111
02/2014,9563X,CASTELLFORT,CASTELLON,20.5,,,-0.18666666666666665,40.49861111111111
02/2014,9569A,CALANDA,TERUEL,20.6,5.05,,-0.23777777777777778,40.946666666666665
02/2014,9573X,ALCAÑIZ,TERUEL,8.0,2.3285714285714287,,-0.14166666666666666,41.058055555555555
02/2014,9576C,BUJARALOZ,ZARAGOZA,10.8,4.591304347826087,,-0.17444444444444443,41.5225
02/2014,9585,LA MOLINA,GIRONA,64.60000000000001,2.3666666666666667,4.426923076923076,1.9394444444444445,42.3325
02/2014,9619,LA SEU D'URGELL,LLEIDA,24.7,0.4523809523809524,,1.4630555555555556,42.35472222222222
02/2014,9698U,TALARN,LLEIDA,38.6,2.2357142857142858,4.7250000000000005,0.8652777777777777,42.20527777777778
02/2014,9720X,TÀRREGA,LLEIDA,26.4,0.9892857142857142,,1.1494444444444445,41.650555555555556
02/2014,9771C,LLEIDA,LLEIDA,13.4,3.1285714285714286,6.125,0.5980555555555556,41.626111111111115
02/2014,9784P,BIELSA,HUESCA,130.4,1.8035714285714286,,0.22472222222222224,42.63
02/2014,9814A,TORLA,HUESCA,151.6,0.8821428571428571,,-0.11166666666666668,42.626666666666665
02/2014,9898,"HUESCA, AEROPUERTO",HUESCA,37.300000000000004,4.9222222222222225,4.921428571428572,-0.32555555555555554,42.08444444444444
02/2014,9981A,ESTACIÓN DE TORTOSA (ROQUETES),TARRAGONA,15.8,2.9499999999999997,5.739285714285714,0.49333333333333335,40.82027777777778
02/2014,9987P,SANT JAUME D'ENVEJA,TARRAGONA,1.9,3.0892857142857144,,0.81,40.69916666666666
02/2014,9990X,"NAUT ARAN, ARTIES ",LLEIDA,63.0,,,0.8769444444444445,42.70027777777778
02/2014,B013X,"ESCORCA, LLUC",ILLES BALEARS,20.3,0.9923076923076923,,2.8858333333333333,39.82333333333334
02/2014,B228,"PALMA, PUERTO",ILLES BALEARS,18.3,1.9535714285714287,6.307142857142857,2.625277777777778,39.555277777777775
02/2014,B248,"SIERRA DE ALFABIA, BUNYOLA",ILLES BALEARS,0.0,6.989285714285714,,2.7130555555555556,39.735
02/2014,B278,"PALMA DE MALLORCA, AEROPUERTO",ILLES BALEARS,17.4,4.185714285714286,5.8,2.736666666666667,39.56083333333333
02/2014,B346X,PORRERES,ILLES BALEARS,22.7,2.6357142857142857,,3.0191666666666666,39.52166666666667
02/2014,B434X,PORTOCOLOM  ,ILLES BALEARS,27.2,4.496428571428572,7.257142857142857,3.2716666666666665,39.41444444444444
02/2014,B569X,CAPDEPERA,ILLES BALEARS,39.5,5.513636363636364,,3.4780555555555557,39.71666666666667
02/2014,B691Y,SA POBLA,ILLES BALEARS,13.0,3.0304347826086957,6.3478260869565215,3.0166666666666666,39.74916666666667
02/2014,B893,"MENORCA, AEROPUERTO",ILLES BALEARS,30.3,4.5928571428571425,5.660714285714286,4.2155555555555555,39.85472222222222
02/2014,B954,"IBIZA, AEROPUERTO",ILLES BALEARS,10.799999999999999,5.228571428571429,5.471428571428571,1.3844444444444444,38.87638888888889
02/2014,C029O,LANZAROTE AEROPUERTO,LAS PALMAS,12.500000000000002,6.644444444444445,6.942857142857143,-13.600277777777777,28.951944444444443
02/2014,C129Z,TAZACORTE,STA. CRUZ DE TENERIFE,3.8,1.8807692307692307,,-17.915277777777778,28.59583333333333
02/2014,C139E,LA PALMA AEROPUERTO,STA. CRUZ DE TENERIFE,26.1,5.560714285714285,5.6571428571428575,-17.755,28.633055555555558
02/2014,C249I,FUERTEVENTURA AEROPUERTO,LAS PALMAS,6.9,6.739285714285714,7.021428571428571,-13.863055555555555,28.44472222222222
02/2014,C329Z,SAN SEBASTIÁN DE LA GOMERA,STA. CRUZ DE TENERIFE,8.5,3.769230769230769,,-17.11138888888889,28.08972222222222
02/2014,C429I,TENERIFE SUR AEROPUERTO,STA. CRUZ DE TENERIFE,15.0,5.951851851851852,6.6,-16.561111111111114,28.046944444444446
02/2014,C430E,IZAÑA,STA. CRUZ DE TENERIFE,49.8,7.877272727272728,9.885714285714286,-16.499444444444446,28.30888888888889
02/2014,C439J,GÜÍMAR,STA. CRUZ DE TENERIFE,30.2,,,-16.38222222222222,28.31833333333333
02/2014,C447A,TENERIFE NORTE AEROPUERTO,STA. CRUZ DE TENERIFE,117.7,6.178571428571429,5.021428571428571,-16.329444444444444,28.4775
02/2014,C449C,STA.CRUZ DE TENERIFE,STA. CRUZ DE TENERIFE,32.5,2.567857142857143,7.414285714285714,-16.255277777777778,28.46333333333333
02/2014,C459Z,PUERTO DE LA CRUZ,STA. CRUZ DE TENERIFE,67.6,3.3857142857142857,,-16.548055555555557,28.418055555555558
02/2014,C619I,LA ALDEA DE SAN NICOLÁS,LAS PALMAS,26.8,3.5185185185185186,,-15.81388888888889,28.000833333333333
02/2014,C629X,"MOGÁN, PUERTO",LAS PALMAS,1.3,3.0714285714285716,,-15.764166666666666,27.81638888888889
02/2014,C649I,GRAN CANARIA AEROPUERTO,LAS PALMAS,26.999999999999996,8.164285714285715,5.757142857142857,-15.395277777777777,27.91777777777778
02/2014,C659H,"LAS PALMAS DE GRAN CANARIA, SAN CRISTOBAL",LAS PALMAS,3.9,3.55,,-15.416111111111112,28.08972222222222
02/2014,C659M,"LAS PALMAS DE GRAN CANARIA, PL. DE LA FERIA",LAS PALMAS,34.5,2.2964285714285713,,-15.421388888888888,28.113055555555558
02/2014,C689E,MASPALOMAS,LAS PALMAS,1.6,2.9892857142857143,,-15.595833333333333,27.735833333333336
02/2014,C839I,TEGUISE,LAS PALMAS,13.8,3.6153846153846154,,-13.501944444444444,29.231944444444444
02/2014,C929I,HIERRO AEROPUERTO,STA. CRUZ DE TENERIFE,11.0,7.528571428571429,6.9750000000000005,-17.88888888888889,27.81888888888889
03/2014,0002I,VANDELLÒS  ,TARRAGONA,18.5,1.8516129032258064,,0.8713888888888889,40.95805555555556
03/2014,0016A,REUS AEROPUERTO,TARRAGONA,55.4,3.9129032258064513,6.816129032258065,1.163611111111111,41.144999999999996
03/2014,0076,BARCELONA AEROPUERTO,BARCELONA,12.2,5.383870967741935,6.725806451612903,2.0700000000000003,41.29277777777778
03/2014,0149X,MANRESA,BARCELONA,8.8,2.6806451612903226,8.23225806451613,1.840277777777778,41.72
03/2014,0200E,"BARCELONA, FABRA",BARCELONA,30.0,4.145161290322581,7.193548387096774,2.1241666666666665,41.41833333333333
03/2014,0201D,BARCELONA,BARCELONA,6.9,4.026666666666666,,2.2,41.39055555555556
03/2014,0229I,SABADELL AEROPUERTO,BARCELONA,10.0,2.6838709677419357,,2.1030555555555557,41.52361111111111
03/2014,0252D,ARENYS DE MAR,BARCELONA,12.2,1.3129032258064517,,2.54,41.587500000000006
03/2014,0255B,SANTA SUSANNA,BARCELONA,22.8,1.1310344827586205,,2.6969444444444446,41.65083333333333
03/2014,0324A,RIPOLL,GIRONA,26.6,1.2620689655172415,,2.196111111111111,42.19138888888889
03/2014,0367,GIRONA AEROPUERTO,GIRONA,25.5,2.609677419354839,7.887096774193548,2.763333333333333,41.91166666666666
03/2014,0372C,PORQUERES,GIRONA,39.8,1.6806451612903226,,2.763611111111111,42.10444444444445
03/2014,1002Y,"BAZTAN, IRURITA ",NAVARRA,155.5,0.9299999999999999,,-1.5430555555555554,43.13583333333333
03/2014,1014,"HONDARRIBIA, MALKARROA",GIPUZKOA,221.8,2.980645161290323,4.464516129032258,-1.7922222222222222,43.356944444444444
03/2014,1014A,DONOSTIA / SAN SEBASTIÁN AEROPUERTO,GIPUZKOA,223.4,2.929032258064516,4.464516129032258,-1.7922222222222222,43.356944444444444
03/2014,1024E,"DONOSTIA / SAN SEBASTIÁN, IGELDO",GIPUZKOA,180.3,4.612903225806452,4.45483870967742,-2.041111111111111,43.30638888888888
03/2014,1037Y,ZUMARRAGA,GIPUZKOA,268.8,2.403448275862069,,-2.3175,43.080000000000005
03/2014,1041A,ZUMAIA,GIPUZKOA,123.3,3.7096774193548385,,-2.2511111111111113,43.30222222222222
03/2014,1050J,ELGOIBAR,GIPUZKOA,231.3,1.3935483870967742,,-2.413333333333333,43.20944444444445
03/2014,1055B,LEKEITIO,BIZKAIA,32.7,2.66,,-2.5102777777777776,43.37694444444445
03/2014,1057B,MATXITXAKO,BIZKAIA,209.0,5.660714285714286,,-2.7527777777777778,43.45388888888889
03/2014,1059X,PUNTA GALEA,BIZKAIA,107.6,3.04,,-3.0216666666666665,43.375
03/2014,1078I,GÜEÑES,BIZKAIA,186.4,2.0193548387096776,,-3.104722222222222,43.20333333333333
03/2014,1082,BILBAO AEROPUERTO,BIZKAIA,161.2,3.596774193548387,4.390322580645161,-2.906388888888889,43.29805555555556
03/2014,1109,SANTANDER AEROPUERTO,CANTABRIA,155.9,,4.496774193548387,-3.8255555555555554,43.42388888888889
03/2014,1111,SANTANDER,CANTABRIA,103.7,5.219354838709678,5.183870967741935,-3.8005555555555555,43.49111111111111
03/2014,1111X,SANTANDER,CANTABRIA,103.8,5.47741935483871,5.438709677419355,-3.8005555555555555,43.49111111111111
03/2014,1159,SAN VICENTE DE LA BARQUERA,CANTABRIA,117.8,3.5161290322580645,,-4.392222222222222,43.39333333333333
03/2014,1183X,LLANES,ASTURIAS,120.19999999999999,3.0966666666666667,4.6066666666666665,-4.748055555555555,43.42027777777778
03/2014,1207U,"GIJÓN, CAMPUS",ASTURIAS,121.2,2.57,,-5.621111111111111,43.52305555555555
03/2014,1208H,"GIJÓN, PUERTO",ASTURIAS,121.5,,4.803225806451613,-5.700833333333334,43.559999999999995
03/2014,1210X,CABO PEÑAS,ASTURIAS,70.10000000000001,4.506451612903225,,-5.8486111111111105,43.655833333333334
03/2014,1212E,ASTURIAS AEROPUERTO,ASTURIAS,149.5,3.7225806451612904,4.629032258064516,-6.0441666666666665,43.566944444444445
03/2014,1221D,PAJARES-VALGRANDE,ASTURIAS,80.2,2.82,,-5.776388888888889,42.978611111111114
03/2014,1249I,OVIEDO,ASTURIAS,130.0,2.551612903225806,5.774193548387097,-5.874166666666667,43.35333333333333
03/2014,1249X,OVIEDO,ASTURIAS,136.4,2.5483870967741935,5.922580645161291,-5.874166666666667,43.35333333333333
03/2014,1283U,CABO BUSTO,ASTURIAS,70.8,4.2,5.196666666666667,-6.47,43.56916666666667
03/2014,1351,ESTACA DE BARES,A CORUÑA,40.4,9.255172413793103,5.367741935483871,-7.6850000000000005,43.78611111111111
03/2014,1387,A CORUÑA,A CORUÑA,72.2,4.1,6.364516129032258,-8.421388888888888,43.365833333333335
03/2014,1387E,A CORUÑA AEROPUERTO,A CORUÑA,73.4,3.96,5.651612903225806,-8.371944444444445,43.30694444444444
03/2014,1393,CABO VILÁN,A CORUÑA,60.6,7.1000000000000005,,-9.210833333333333,43.160555555555554
03/2014,1400,FISTERRA,A CORUÑA,55.0,6.75,5.751724137931035,-9.29138888888889,42.92472222222222
03/2014,1428,SANTIAGO DE COMPOSTELA AEROPUERTO,A CORUÑA,90.5,3.0833333333333335,4.825806451612903,-8.410555555555556,42.88805555555555
03/2014,1473A,PADRÓN,A CORUÑA,85.8,2.9192307692307695,,-8.627222222222223,42.73833333333334
03/2014,1475X,SANTIAGO DE COMPOSTELA,A CORUÑA,78.5,0.8689655172413793,,-8.555833333333334,42.876111111111115
03/2014,1484C,PONTEVEDRA,PONTEVEDRA,102.0,1.7516129032258063,6.048387096774194,-8.615833333333333,42.43833333333333
03/2014,1495,VIGO AEROPUERTO,PONTEVEDRA,187.1,3.161290322580645,4.841935483870968,-8.623888888888889,42.23861111111111
03/2014,1505,LUGO AEROPUERTO,LUGO,90.8,1.961290322580645,5.848387096774194,-7.4575000000000005,43.11138888888889
03/2014,1542,PUERTO DE LEITARIEGOS,ASTURIAS,110.80000000000001,4.340740740740741,5.1,-6.4141666666666675,42.994166666666665
03/2014,1549,PONFERRADA,LEON,55.2,1.867741935483871,6.838709677419355,-6.6,42.56388888888888
03/2014,1631E,A POBRA DE TRIVES,OURENSE,115.0,2.9322580645161294,5.4,-7.2825,42.339444444444446
03/2014,1690A,OURENSE,OURENSE,40.2,1.4967741935483871,5.735483870967743,-7.859722222222222,42.32527777777778
03/2014,1700X,O CARBALLIÑO,OURENSE,80.0,1.1714285714285713,,-8.092500000000001,42.421388888888885
03/2014,1735X,XINZO DE LIMIA,OURENSE,52.8,2.8285714285714287,,-7.733611111111111,42.07916666666667
03/2014,2030,SORIA,SORIA,22.2,3.3066666666666666,7.009677419354839,-2.4830555555555556,41.775
03/2014,2117D,ARANDA DE DUERO,BURGOS,31.2,2.851612903225807,6.193548387096774,-3.742777777777778,41.66583333333333
03/2014,2150H,"LA PINILLA, ESTACIÓN DE ESQUÍ",SEGOVIA,0.0,4.658064516129032,4.306451612903226,-3.475277777777778,41.19194444444444
03/2014,2235U,CERVERA DE PISUERGA,PALENCIA,58.0,2.8058823529411767,6.326315789473685,-4.52,42.870555555555555
03/2014,2298,PALACIOS DE LA SIERRA,BURGOS,0.0,3.6806451612903226,6.525806451612904,-3.131666666666667,41.959722222222226
03/2014,2331,BURGOS AEROPUERTO,BURGOS,26.7,4.667741935483871,6.564516129032258,-3.6213888888888888,42.356944444444444
03/2014,2374X,CARRIÓN DE LOS CONDES,PALENCIA,15.0,2.3433333333333333,7.156666666666667,-4.617222222222223,42.350833333333334
03/2014,2400E,AUTILLA DEL PINO,PALENCIA,9.8,5.0,,-4.602777777777778,41.995555555555555
03/2014,2422,VALLADOLID,VALLADOLID,11.8,2.6516129032258067,8.035483870967742,-4.754444444444444,41.64083333333333
03/2014,2444,ÁVILA,AVILA,23.599999999999998,3.851612903225807,7.080645161290323,-4.679722222222223,40.659166666666664
03/2014,2462,PUERTO DE NAVACERRADA,MADRID,246.0,4.848387096774194,4.758064516129032,-4.010555555555555,40.793055555555554
03/2014,2465,SEGOVIA,SEGOVIA,42.0,3.851612903225807,6.535483870967742,-4.126388888888888,40.945277777777775
03/2014,2491C,"LA COVATILLA, ESTACIÓN DE ESQUÍ",SALAMANCA,117.19999999999999,5.480769230769231,6.210344827586207,-5.69,40.355000000000004
03/2014,2503X,OLMEDO,VALLADOLID,9.0,2.4833333333333334,,-4.686944444444444,41.325833333333335
03/2014,2539,VALLADOLID AEROPUERTO,VALLADOLID,8.4,4.664516129032258,6.906451612903226,-4.855555555555555,41.71194444444445
03/2014,2614,ZAMORA,ZAMORA,21.2,2.0516129032258066,6.956666666666666,-5.735277777777778,41.51555555555556
03/2014,2630X,PUERTO DE SAN ISIDRO,LEON,216.4,4.470967741935484,1.6214285714285714,-5.376944444444444,43.06222222222222
03/2014,2661,"LEÓN, VIRGEN DEL CAMINO",LEON,49.3,3.7870967741935484,7.564516129032258,-5.651111111111112,42.58833333333334
03/2014,2737E,LAGUNAS DE SOMOZA,LEON,46.7,3.416129032258065,,-6.196666666666667,42.3775
03/2014,2755X,BENAVENTE,ZAMORA,30.6,2.6322580645161286,7.103225806451612,-5.666666666666667,42.01083333333333
03/2014,2775X,VILLARDECIERVOS,ZAMORA,36.0,2.9387096774193546,7.593548387096774,-6.279722222222222,41.94138888888889
03/2014,2811A,NAVARREDONDA DE GREDOS,AVILA,97.2,1.9774193548387096,,-5.143055555555556,40.35055555555556
03/2014,2867,SALAMANCA AEROPUERTO,SALAMANCA,24.6,3.7419354838709675,7.33225806451613,-5.498333333333333,40.95944444444445
03/2014,2870,SALAMANCA,SALAMANCA,29.9,2.0548387096774197,,-5.662222222222223,40.9575
03/2014,2916A,VITIGUDINO,SALAMANCA,30.6,4.22258064516129,6.816129032258065,-6.437777777777778,41.01138888888889
03/2014,2946X,SAELICES EL CHICO,SALAMANCA,40.2,3.0580645161290323,7.153333333333333,-6.6,40.635
03/2014,3013,MOLINA DE ARAGÓN,GUADALAJARA,29.8,2.364516129032258,6.674193548387097,-1.8788888888888888,40.84166666666667
03/2014,3044X,CAÑIZARES,CUENCA,50.3,,,-2.15,40.530277777777776
03/2014,3094B,TARANCÓN,CUENCA,8.8,3.69,7.78,-3.0213888888888887,40.01138888888889
03/2014,3100B,ARANJUEZ,MADRID,32.599999999999994,2.074193548387097,,-3.546111111111111,40.06722222222223
03/2014,3110C,BUITRAGO DEL LOZOYA,MADRID,57.1,2.3193548387096774,,-3.613611111111111,41.00694444444444
03/2014,3111D,SOMOSIERRA,MADRID,38.3,2.494736842105263,,-3.5802777777777774,41.135555555555555
03/2014,3129,MADRID AEROPUERTO,MADRID,16.3,3.9612903225806453,7.361290322580646,-3.5555555555555554,40.46666666666667
03/2014,3130C,SIGÜENZA,GUADALAJARA,20.8,,6.48,-2.618055555555556,41.08638888888889
03/2014,3168C,"GUADALAJARA, EL SERRANILLO",GUADALAJARA,13.4,,,-3.1733333333333333,40.659166666666664
03/2014,3168D,GUADALAJARA,GUADALAJARA,15.6,2.5,7.470967741935484,-3.15,40.63027777777778
03/2014,3175,TORREJÓN DE ARDOZ,MADRID,13.8,3.3096774193548386,7.03,-3.443611111111111,40.48861111111111
03/2014,3191E,COLMENAR VIEJO,MADRID,41.7,3.3451612903225807,6.935483870967742,-3.765,40.69611111111111
03/2014,3194U,"MADRID, CIUDAD UNIVERSITARIA",MADRID,24.2,1.2322580645161292,,-3.7241666666666666,40.45166666666667
03/2014,3195,"MADRID, RETIRO",MADRID,22.8,1.9774193548387096,,-3.6780555555555554,40.411944444444444
03/2014,3196,"MADRID, CUATRO VIENTOS",MADRID,24.400000000000002,3.374193548387097,7.132258064516129,-3.786111111111111,40.37555555555556
03/2014,3200,GETAFE,MADRID,26.3,3.835483870967742,7.477419354838709,-3.7222222222222223,40.29944444444444
03/2014,3260B,TOLEDO,TOLEDO,35.8,3.8419354838709676,8.306451612903226,-4.045277777777778,39.88472222222222
03/2014,3266A,PUERTO ALTO DEL LEÓN,MADRID,97.7,11.875,,-4.141944444444444,40.70638888888889
03/2014,3298X,SAN PABLO DE LOS MONTES,TOLEDO,9.6,2.703225806451613,,-4.350555555555555,39.54694444444444
03/2014,3338,ROBLEDO DE CHAVELA,MADRID,15.6,,,-4.25,40.42777777777778
03/2014,3365A,TALAVERA DE LA REINA,TOLEDO,24.3,3.5612903225806454,,-4.863611111111111,39.95861111111111
03/2014,3391,SOTILLO DE LA ADRADA,AVILA,40.5,,,-4.590833333333333,40.28861111111111
03/2014,3434X,NAVALMORAL DE LA MATA,CACERES,44.0,3.2548387096774194,7.374193548387097,-5.5825,39.94583333333333
03/2014,3463X,TRUJILLO,CACERES,37.1,3.164285714285714,,-5.854166666666666,39.4825
03/2014,3469A,CÁCERES,CACERES,30.6,3.3548387096774195,8.087096774193547,-6.338888888888889,39.47138888888889
03/2014,3519X,PLASENCIA,CACERES,97.80000000000001,2.02258064516129,,-6.085833333333333,40.043055555555554
03/2014,3526X,CORIA,CACERES,28.4,3.2903225806451615,7.9,-6.5575,40.00361111111111
03/2014,3576X,VALENCIA DE ALCÁNTARA,CACERES,37.5,2.2214285714285715,,-7.231111111111111,39.414722222222224
03/2014,4061X,QUINTANAR DE LA ORDEN,TOLEDO,17.6,1.941935483870968,,-3.0483333333333333,39.59722222222222
03/2014,4067,MADRIDEJOS,TOLEDO,19.0,4.329032258064516,8.658064516129032,-3.5283333333333333,39.49194444444444
03/2014,4103X,TOMELLOSO,CIUDAD REAL,29.200000000000003,3.6566666666666667,7.643333333333333,-3.0075,39.16916666666666
03/2014,4121,CIUDAD REAL,CIUDAD REAL,12.3,2.396774193548387,7.509677419354839,-3.9202777777777778,38.98916666666667
03/2014,4147X,VALDEPEÑAS,CIUDAD REAL,11.0,2.603225806451613,7.419354838709677,-3.391388888888889,38.75055555555556
03/2014,4148,VISO DEL MARQUÉS,CIUDAD REAL,25.0,2.609677419354839,,-3.5666666666666664,38.518055555555556
03/2014,4220X,PUEBLA DE DON RODRIGO,CIUDAD REAL,18.2,1.803225806451613,,-4.621944444444445,39.08361111111111
03/2014,4244X,HERRERA DEL DUQUE,BADAJOZ,24.6,2.7,7.548387096774194,-5.062222222222222,39.169444444444444
03/2014,4267X,HINOJOSA DEL DUQUE,CORDOBA,29.8,3.658333333333333,,-5.1211111111111105,38.49861111111111
03/2014,4358X,DON BENITO,BADAJOZ,29.6,2.5677419354838706,7.725806451612903,-5.880555555555556,38.955555555555556
03/2014,4386B,LLERENA,BADAJOZ,32.2,4.774193548387097,7.693548387096774,-6.016944444444444,38.23166666666667
03/2014,4410X,MÉRIDA,BADAJOZ,16.1,2.8193548387096774,,-6.385555555555556,38.91583333333333
03/2014,4452,BADAJOZ AEROPUERTO,BADAJOZ,23.0,3.832258064516129,7.254838709677419,-6.813888888888889,38.88333333333333
03/2014,4511C,JEREZ DE LOS CABALLEROS,BADAJOZ,30.200000000000003,3.7960000000000003,7.906896551724138,-6.765,38.29861111111111
03/2014,4549Y,AYAMONTE,HUELVA,39.900000000000006,2.383870967741936,,-7.3950000000000005,37.19472222222222
03/2014,4560Y,ALAJAR,HUELVA,77.4,3.2419354838709675,,-6.675000000000001,37.868611111111115
03/2014,4642E,"HUELVA, RONDA ESTE",HUELVA,56.2,3.564516129032258,8.548387096774194,-6.911666666666667,37.27833333333333
03/2014,5000C,CEUTA,CEUTA,39.6,3.825806451612903,7.616129032258065,-5.3469444444444445,35.88861111111111
03/2014,5038X,CAZORLA,JAEN,123.30000000000001,1.196774193548387,,-3.003888888888889,37.91583333333333
03/2014,5047E,BAZA,GRANADA,2.6,,7.590322580645162,-2.735,37.505833333333335
03/2014,5051X,HUÉSCAR,GRANADA,57.199999999999996,2.639130434782609,6.3538461538461535,-2.6527777777777777,37.861111111111114
03/2014,5181D,ARROYO DEL OJANCO,JAEN,52.6,2.480645161290323,,-2.8897222222222223,38.31472222222222
03/2014,5192,VILLARRODRIGO,JAEN,64.0,2.869565217391304,6.283870967741936,-2.6375,38.48916666666667
03/2014,5246,SANTA ELENA,JAEN,0.0,2.42258064516129,7.15483870967742,-3.5352777777777775,38.34444444444445
03/2014,5270,"JAÉN, INSTITUTO",JAEN,14.5,,,-3.7888888888888888,37.77638888888889
03/2014,5270B,JAÉN,JAEN,23.5,3.1870967741935483,7.932258064516129,-3.8091666666666666,37.777499999999996
03/2014,5298X,ANDÚJAR,JAEN,15.1,2.168965517241379,,-4.0633333333333335,38.02305555555555
03/2014,5390Y,VILLANUEVA DE CÓRDOBA,CORDOBA,29.2,2.9935483870967743,,-4.608888888888888,38.33305555555556
03/2014,5402,CÓRDOBA AEROPUERTO,CORDOBA,25.8,2.5999999999999996,7.574193548387097,-4.846666666666667,37.848888888888894
03/2014,5427X,DOÑA MENCÍA,CORDOBA,21.799999999999997,2.5677419354838706,,-4.353888888888888,37.55611111111111
03/2014,5514,GRANADA BASE AÉREA,GRANADA,30.5,2.7789473684210524,7.412903225806452,-3.631388888888889,37.13722222222222
03/2014,5530E,GRANADA AEROPUERTO,GRANADA,23.599999999999998,2.7129032258064516,8.067741935483872,-3.789722222222222,37.19027777777777
03/2014,5582A,LOJA,GRANADA,32.0,1.4580645161290324,,-4.152777777777779,37.16111111111111
03/2014,5612B,LA RODA DE ANDALUCÍA,SEVILLA,42.0,3.512903225806452,,-4.77,37.19444444444444
03/2014,5641X,ÉCIJA,SEVILLA,34.2,2.217857142857143,,-5.085,37.51611111111111
03/2014,5704B,CAZALLA DE LA SIERRA,SEVILLA,2.5,2.0482758620689654,,-5.769722222222222,37.92638888888889
03/2014,5783,SEVILLA AEROPUERTO,SEVILLA,39.5,3.5064516129032257,8.606451612903227,-5.879166666666667,37.416666666666664
03/2014,5796,MORÓN DE LA FRONTERA,SEVILLA,37.2,2.235483870967742,7.561290322580645,-5.6113888888888885,37.16444444444444
03/2014,5860E,"MOGUER, EL ARENOSILLO",HUELVA,74.8,2.512903225806452,,-6.7380555555555555,37.09805555555556
03/2014,5910,"ROTA, BASE NAVAL",CADIZ,14.4,4.735483870967743,8.061290322580644,-6.3325,36.638888888888886
03/2014,5911A,GRAZALEMA,CADIZ,97.6,2.1633333333333336,,-5.3741666666666665,36.760555555555555
03/2014,5960,JEREZ DE LA FRONTERA AEROPUERTO,CADIZ,21.8,3.509677419354839,7.416129032258064,-6.055833333333333,36.75055555555556
03/2014,5972X,SAN FERNANDO,CADIZ,19.8,3.9612903225806453,,-6.205555555555556,36.46555555555556
03/2014,5973,CÁDIZ,CADIZ,16.5,4.883870967741935,8.4,-6.257777777777778,36.499722222222225
03/2014,5995B,VEJER DE LA FRONTERA,CADIZ,28.1,4.04516129032258,,-5.965,36.245555555555555
03/2014,6000A,MELILLA,MELILLA,16.8,4.745161290322581,7.283870967741936,-2.956388888888889,35.27638888888889
03/2014,6001,TARIFA,CADIZ,20.5,6.586666666666667,,-5.598888888888888,36.013888888888886
03/2014,6058I,ESTEPONA,MALAGA,26.6,3.933333333333333,9.13076923076923,-5.155,36.41694444444444
03/2014,6084X,FUENGIROLA,MALAGA,8.6,2.7357142857142853,,-4.618333333333334,36.53861111111111
03/2014,6106X,ANTEQUERA,MALAGA,33.8,2.5655172413793106,,-4.748333333333333,37.029444444444444
03/2014,6155A,MÁLAGA AEROPUERTO,MALAGA,24.8,4.916129032258064,8.064516129032258,-4.482222222222222,36.66611111111111
03/2014,6156X,"MÁLAGA, CENTRO METEOROLÓGICO",MALAGA,26.0,3.0387096774193547,,-4.4816666666666665,36.717777777777776
03/2014,6205X,TORROX,MALAGA,6.0,5.06,,-3.957222222222222,36.72638888888889
03/2014,6268X,MOTRIL,GRANADA,0.0,3.3111111111111113,,-3.5302777777777776,36.72277777777778
03/2014,6277B,ADRA,ALMERIA,8.1,2.764516129032258,,-3.0205555555555557,36.74722222222222
03/2014,6293X,ROQUETAS DE MAR,ALMERIA,18.8,5.45,8.936666666666667,-2.7016666666666667,36.68694444444444
03/2014,6302A,ABLA,ALMERIA,17.3,2.57741935483871,,-2.78,37.14138888888889
03/2014,6325O,ALMERÍA AEROPUERTO,ALMERIA,6.5,5.338709677419355,8.870967741935484,-2.3569444444444447,36.84638888888889
03/2014,6367B,HUÉRCAL-OVERA,ALMERIA,18.3,2.99,,-1.9436111111111112,37.39055555555556
03/2014,6381,ALBORÁN,ALMERIA,0.0,7.040000000000001,,-3.036111111111111,35.93833333333333
03/2014,7002Y,ÁGUILAS,MURCIA,0.8,3.5548387096774197,9.466666666666667,-1.5869444444444445,37.41722222222222
03/2014,7012C,CARTAGENA,MURCIA,0.8,2.1903225806451614,,-0.9877777777777778,37.60111111111111
03/2014,7031,SAN JAVIER AEROPUERTO,MURCIA,0.2,,7.864516129032259,-0.8033333333333333,37.788888888888884
03/2014,7031X,SAN JAVIER AEROPUERTO,MURCIA,0.1,5.04516129032258,9.22258064516129,-0.8058333333333334,37.77833333333333
03/2014,7096B,HELLÍN,ALBACETE,18.3,3.3766666666666665,,-1.7030555555555555,38.54194444444444
03/2014,7119B,CARAVACA DE LA CRUZ,MURCIA,9.6,2.770967741935484,6.996774193548387,-1.8772222222222223,38.1025
03/2014,7145D,CIEZA,MURCIA,6.9,3.890322580645161,,-1.3805555555555555,38.23277777777778
03/2014,7178I,MURCIA,MURCIA,3.1999999999999997,3.2419354838709675,8.016129032258064,-1.1708333333333334,38.00194444444445
03/2014,7209,LORCA,MURCIA,2.4000000000000004,1.7354838709677418,,-1.6872222222222222,37.65472222222222
03/2014,7228,"ALCANTARILLA, BASE AÉREA",MURCIA,4.3,3.396774193548387,7.948387096774193,-1.2286111111111113,37.95777777777778
03/2014,7247X,EL PINÓS/PINOSO,ALICANTE,5.0,2.7451612903225806,,-1.0380555555555557,38.39972222222222
03/2014,7275C,YECLA,MURCIA,5.800000000000001,4.15483870967742,8.306451612903226,-1.159722222222222,38.60166666666667
03/2014,8019,ALICANTE-ELCHE AEROPUERTO,ALICANTE,1.2999999999999998,4.703225806451614,7.835483870967742,-0.5708333333333333,38.282777777777774
03/2014,8025,ALACANT/ALICANTE,ALICANTE,0.4,2.729032258064516,8.80967741935484,-0.49416666666666664,38.3725
03/2014,8050X,JÁVEA/ XÀBIA,ALICANTE,5.2,3.164516129032258,6.941935483870967,0.16777777777777778,38.78361111111111
03/2014,8058X,OLIVA,VALENCIA,38.300000000000004,2.467741935483871,,-0.09583333333333333,38.928888888888885
03/2014,8096,CUENCA,CUENCA,35.2,2.1903225806451614,6.5,-2.1319444444444446,40.06722222222223
03/2014,8175,ALBACETE BASE AÉREA,ALBACETE,9.0,5.15483870967742,7.948387096774193,-1.856388888888889,38.95416666666667
03/2014,8177A,CHINCHILLA,ALBACETE,13.3,4.2172413793103445,,-1.66,38.93583333333333
03/2014,8178D,ALBACETE,ALBACETE,7.3999999999999995,2.196774193548387,7.5520000000000005,-1.8627777777777779,39.005833333333335
03/2014,8293X,XÀTIVA,VALENCIA,43.2,3.325806451612903,7.361290322580645,-0.5236111111111111,39.001666666666665
03/2014,8309X,UTIEL,VALENCIA,6.8,4.816129032258064,7.441935483870967,-1.2447222222222223,39.57555555555556
03/2014,8325X,POLINYÀ DE XÚQUER,VALENCIA,55.2,2.296666666666667,,-0.3719444444444444,39.18472222222222
03/2014,8368U,TERUEL,TERUEL,15.2,2.2161290322580647,7.1066666666666665,-1.1241666666666668,40.35055555555556
03/2014,8414A,VALENCIA AEROPUERTO,VALENCIA,20.3,4.670967741935484,7.896774193548388,-0.4747222222222222,39.485
03/2014,8416,VALÈNCIA,VALENCIA,24.7,,7.358064516129032,-0.3663888888888889,39.480555555555554
03/2014,8416Y,"VALÈNCIA, VIVEROS",VALENCIA,20.9,1.9387096774193548,,-0.3663888888888889,39.480555555555554
03/2014,8489X,VILLAFRANCA DEL CID/VILLAFRANCA,CASTELLON,21.4,4.72258064516129,7.406451612903226,-0.25583333333333336,40.43333333333333
03/2014,8500A,CASTELLÓ - ALMASSORA,CASTELLON,8.2,2.738709677419355,8.290322580645162,-0.07194444444444445,39.95722222222223
03/2014,8523X,VINARÒS,CASTELLON,10.9,3.103448275862069,,0.4297222222222222,40.55416666666667
03/2014,9001D,REINOSA,CANTABRIA,83.1,2.7633333333333336,,-4.160555555555556,42.99194444444444
03/2014,9019B,"VALDERREDIBLE, POLIENTES   ",CANTABRIA,24.4,1.7677419354838708,,-3.933888888888889,42.80638888888888
03/2014,9051,MEDINA DE POMAR,BURGOS,106.0,2.293548387096774,6.1,-3.4827777777777778,42.919999999999995
03/2014,9091O,FORONDA-TXOKIZA,ARABA/ALAVA,165.0,3.1903225806451614,5.341935483870968,-2.735,42.88194444444444
03/2014,9091R,VITORIA-GASTEIZ AEROPUERTO,ARABA/ALAVA,138.8,3.193548387096774,5.783870967741936,-2.7327777777777778,42.871944444444445
03/2014,9111,BELORADO,BURGOS,30.299999999999997,2.9967741935483874,,-3.1702777777777778,42.42111111111111
03/2014,9170,"LOGROÑO, AEROPUERTO",LA RIOJA,37.6,3.3633333333333337,7.083870967741936,-2.331111111111111,42.452222222222225
03/2014,9201K,JACA,HUESCA,81.3,2.106896551724138,,-0.5469444444444445,42.57888888888889
03/2014,9208E,ARAGÜÉS DEL PUERTO,HUESCA,120.0,2.658620689655172,,-0.6727777777777777,42.70861111111111
03/2014,9244X,SOS DEL REY CATÓLICO,ZARAGOZA,54.1,2.7225806451612904,,-1.213611111111111,42.490833333333335
03/2014,9262,PAMPLONA,NAVARRA,138.8,,,-1.6383333333333332,42.81777777777778
03/2014,9263D,"PAMPLONA, AEROPUERTO",NAVARRA,111.8,3.5387096774193547,6.003225806451613,-1.65,42.776944444444446
03/2014,9263X,"ARANGUREN, ILUNDAIN  ",NAVARRA,148.0,1.441935483870968,,-1.5325,42.77611111111111
03/2014,9283X,CADREITA,NAVARRA,16.3,3.8363636363636364,,-1.7113888888888888,42.206944444444446
03/2014,9294E,"BARDENAS REALES, BASE AÉREA",NAVARRA,27.0,5.199999999999999,,-1.475277777777778,42.198611111111106
03/2014,9381I,CALAMOCHA,TERUEL,24.2,2.832258064516129,7.296774193548388,-1.2933333333333332,40.92611111111111
03/2014,9390,DAROCA,ZARAGOZA,34.9,1.3419354838709678,6.535483870967742,-1.41,41.114444444444445
03/2014,9394X,CALATAYUD,ZARAGOZA,11.8,3.1903225806451614,,-1.6452777777777778,41.33111111111111
03/2014,9434,"ZARAGOZA, AEROPUERTO",ZARAGOZA,15.7,4.745161290322581,7.680645161290323,-1.0041666666666667,41.660555555555554
03/2014,9434P,"ZARAGOZA, VALDESPARTERA",ZARAGOZA,12.8,4.444444444444445,7.957692307692308,-0.9347222222222222,41.62111111111111
03/2014,9563X,CASTELLFORT,CASTELLON,29.000000000000004,,,-0.18666666666666665,40.49861111111111
03/2014,9569A,CALANDA,TERUEL,21.0,3.5954545454545452,,-0.23777777777777778,40.946666666666665
03/2014,9573X,ALCAÑIZ,TERUEL,9.7,2.596774193548387,,-0.14166666666666666,41.058055555555555
03/2014,9576C,BUJARALOZ,ZARAGOZA,16.0,4.451724137931034,,-0.17444444444444443,41.5225
03/2014,9585,LA MOLINA,GIRONA,51.8,2.5064516129032257,6.736666666666666,1.9394444444444445,42.3325
03/2014,9619,LA SEU D'URGELL,LLEIDA,22.1,1.325,,1.4630555555555556,42.35472222222222
03/2014,9698U,TALARN,LLEIDA,34.4,2.883870967741936,8.274193548387096,0.8652777777777777,42.20527777777778
03/2014,9720X,TÀRREGA,LLEIDA,12.0,1.3241379310344827,,1.1494444444444445,41.650555555555556
03/2014,9771C,LLEIDA,LLEIDA,13.2,3.490322580645161,8.958064516129031,0.5980555555555556,41.626111111111115
03/2014,9784P,BIELSA,HUESCA,81.2,2.351612903225807,,0.22472222222222224,42.63
03/2014,9814A,TORLA,HUESCA,75.8,0.5033333333333334,,-0.11166666666666668,42.626666666666665
03/2014,9898,"HUESCA, AEROPUERTO",HUESCA,43.4,5.203225806451612,7.770967741935484,-0.32555555555555554,42.08444444444444
03/2014,9981A,ESTACIÓN DE TORTOSA (ROQUETES),TARRAGONA,29.7,3.2838709677419353,7.435483870967742,0.49333333333333335,40.82027777777778
03/2014,9987P,SANT JAUME D'ENVEJA,TARRAGONA,3.5,3.2580645161290325,,0.81,40.69916666666666
03/2014,9990X,"NAUT ARAN, ARTIES ",LLEIDA,80.8,,,0.8769444444444445,42.70027777777778
03/2014,B013X,"ESCORCA, LLUC",ILLES BALEARS,59.9,0.9678571428571429,,2.8858333333333333,39.82333333333334
03/2014,B228,"PALMA, PUERTO",ILLES BALEARS,13.3,2.135483870967742,6.938709677419355,2.625277777777778,39.555277777777775
03/2014,B248,"SIERRA DE ALFABIA, BUNYOLA",ILLES BALEARS,0.0,6.229032258064516,,2.7130555555555556,39.735
03/2014,B278,"PALMA DE MALLORCA, AEROPUERTO",ILLES BALEARS,11.3,3.9935483870967743,6.770967741935484,2.736666666666667,39.56083333333333
03/2014,B346X,PORRERES,ILLES BALEARS,25.6,2.1129032258064515,,3.0191666666666666,39.52166666666667
03/2014,B434X,PORTOCOLOM  ,ILLES BALEARS,25.6,3.9035714285714285,8.085714285714285,3.2716666666666665,39.41444444444444
03/2014,B569X,CAPDEPERA,ILLES BALEARS,38.0,5.787096774193548,,3.4780555555555557,39.71666666666667
03/2014,B691Y,SA POBLA,ILLES BALEARS,42.2,3.1225806451612903,7.367741935483871,3.0166666666666666,39.74916666666667
03/2014,B893,"MENORCA, AEROPUERTO",ILLES BALEARS,53.8,4.974193548387096,6.506451612903225,4.2155555555555555,39.85472222222222
03/2014,B954,"IBIZA, AEROPUERTO",ILLES BALEARS,10.0,4.335483870967742,7.287096774193548,1.3844444444444444,38.87638888888889
03/2014,C029O,LANZAROTE AEROPUERTO,LAS PALMAS,7.1000000000000005,7.390322580645161,8.293548387096775,-13.600277777777777,28.951944444444443
03/2014,C129Z,TAZACORTE,STA. CRUZ DE TENERIFE,16.0,2.196774193548387,,-17.915277777777778,28.59583333333333
03/2014,C139E,LA PALMA AEROPUERTO,STA. CRUZ DE TENERIFE,2.0,5.943333333333333,5.816129032258065,-17.755,28.633055555555558
03/2014,C249I,FUERTEVENTURA AEROPUERTO,LAS PALMAS,4.2,7.409677419354838,7.796774193548386,-13.863055555555555,28.44472222222222
03/2014,C329Z,SAN SEBASTIÁN DE LA GOMERA,STA. CRUZ DE TENERIFE,2.2,4.267741935483872,,-17.11138888888889,28.08972222222222
03/2014,C429I,TENERIFE SUR AEROPUERTO,STA. CRUZ DE TENERIFE,0.0,7.532258064516129,8.584615384615384,-16.561111111111114,28.046944444444446
03/2014,C430E,IZAÑA,STA. CRUZ DE TENERIFE,20.7,7.837931034482759,10.77741935483871,-16.499444444444446,28.30888888888889
03/2014,C439J,GÜÍMAR,STA. CRUZ DE TENERIFE,1.0,,,-16.38222222222222,28.31833333333333
03/2014,C447A,TENERIFE NORTE AEROPUERTO,STA. CRUZ DE TENERIFE,58.3,6.374193548387097,5.396774193548388,-16.329444444444444,28.4775
03/2014,C449C,STA.CRUZ DE TENERIFE,STA. CRUZ DE TENERIFE,19.9,2.806451612903226,8.380645161290323,-16.255277777777778,28.46333333333333
03/2014,C459Z,PUERTO DE LA CRUZ,STA. CRUZ DE TENERIFE,14.6,3.8400000000000003,,-16.548055555555557,28.418055555555558
03/2014,C619I,LA ALDEA DE SAN NICOLÁS,LAS PALMAS,0.0,3.8689655172413793,,-15.81388888888889,28.000833333333333
03/2014,C629X,"MOGÁN, PUERTO",LAS PALMAS,0.0,3.135483870967742,,-15.764166666666666,27.81638888888889
03/2014,C649I,GRAN CANARIA AEROPUERTO,LAS PALMAS,4.4,9.006451612903225,6.370967741935484,-15.395277777777777,27.91777777777778
03/2014,C659H,"LAS PALMAS DE GRAN CANARIA, SAN CRISTOBAL",LAS PALMAS,5.0,4.190322580645161,,-15.416111111111112,28.08972222222222
03/2014,C659M,"LAS PALMAS DE GRAN CANARIA, PL. DE LA FERIA",LAS PALMAS,5.0,2.2483870967741937,,-15.421388888888888,28.113055555555558
03/2014,C689E,MASPALOMAS,LAS PALMAS,1.2,2.767857142857143,,-15.595833333333333,27.735833333333336
03/2014,C839I,TEGUISE,LAS PALMAS,4.6,4.575862068965517,,-13.501944444444444,29.231944444444444
03/2014,C929I,HIERRO AEROPUERTO,STA. CRUZ DE TENERIFE,7.9,8.135483870967743,6.851612903225806,-17.88888888888889,27.81888888888889
04/2014,0002I,VANDELLÒS  ,TARRAGONA,73.5,1.6099999999999999,,0.8713888888888889,40.95805555555556
04/2014,0016A,REUS AEROPUERTO,TARRAGONA,76.9,3.1766666666666667,7.883333333333334,1.163611111111111,41.144999999999996
04/2014,0076,BARCELONA AEROPUERTO,BARCELONA,28.599999999999998,4.97,7.5233333333333325,2.0700000000000003,41.29277777777778
04/2014,0149X,MANRESA,BARCELONA,48.2,2.7199999999999998,8.376666666666667,1.840277777777778,41.72
04/2014,0200E,"BARCELONA, FABRA",BARCELONA,76.5,3.67,8.173333333333334,2.1241666666666665,41.41833333333333
04/2014,0201D,BARCELONA,BARCELONA,35.9,3.789285714285714,,2.2,41.39055555555556
04/2014,0229I,SABADELL AEROPUERTO,BARCELONA,39.6,2.8466666666666667,,2.1030555555555557,41.52361111111111
04/2014,0252D,ARENYS DE MAR,BARCELONA,29.0,1.2333333333333334,,2.54,41.587500000000006
04/2014,0255B,SANTA SUSANNA,BARCELONA,41.0,1.5666666666666667,,2.6969444444444446,41.65083333333333
04/2014,0324A,RIPOLL,GIRONA,108.3,1.0799999999999998,,2.196111111111111,42.19138888888889
04/2014,0367,GIRONA AEROPUERTO,GIRONA,52.6,2.7,7.923333333333333,2.763333333333333,41.91166666666666
04/2014,0372C,PORQUERES,GIRONA,85.39999999999999,1.5066666666666666,,2.763611111111111,42.10444444444445
04/2014,1002Y,"BAZTAN, IRURITA ",NAVARRA,104.7,0.8833333333333333,,-1.5430555555555554,43.13583333333333
04/2014,1014,"HONDARRIBIA, MALKARROA",GIPUZKOA,112.10000000000001,2.54,5.8133333333333335,-1.7922222222222222,43.356944444444444
04/2014,1014A,DONOSTIA / SAN SEBASTIÁN AEROPUERTO,GIPUZKOA,117.1,2.506666666666667,5.8133333333333335,-1.7922222222222222,43.356944444444444
04/2014,1024E,"DONOSTIA / SAN SEBASTIÁN, IGELDO",GIPUZKOA,97.2,3.216666666666667,6.116666666666666,-2.041111111111111,43.30638888888888
04/2014,1037Y,ZUMARRAGA,GIPUZKOA,84.1,1.9200000000000002,,-2.3175,43.080000000000005
04/2014,1041A,ZUMAIA,GIPUZKOA,55.1,3.0300000000000002,,-2.2511111111111113,43.30222222222222
04/2014,1050J,ELGOIBAR,GIPUZKOA,59.2,1.47,,-2.413333333333333,43.20944444444445
04/2014,1055B,LEKEITIO,BIZKAIA,44.2,3.58,,-2.5102777777777776,43.37694444444445
04/2014,1057B,MATXITXAKO,BIZKAIA,69.4,4.753333333333333,,-2.7527777777777778,43.45388888888889
04/2014,1059X,PUNTA GALEA,BIZKAIA,51.8,2.4733333333333336,,-3.0216666666666665,43.375
04/2014,1078I,GÜEÑES,BIZKAIA,40.8,1.5666666666666667,,-3.104722222222222,43.20333333333333
04/2014,1082,BILBAO AEROPUERTO,BIZKAIA,49.8,3.17,4.6433333333333335,-2.906388888888889,43.29805555555556
04/2014,1083L,CASTRO URDIALES,CANTABRIA,2.8000000000000003,2.5,,-3.233888888888889,43.39472222222222
04/2014,1109,SANTANDER AEROPUERTO,CANTABRIA,61.5,,4.8566666666666665,-3.8255555555555554,43.42388888888889
04/2014,1111,SANTANDER,CANTABRIA,55.3,4.096666666666667,5.66,-3.8005555555555555,43.49111111111111
04/2014,1111X,SANTANDER,CANTABRIA,53.5,4.35,6.193333333333333,-3.8005555555555555,43.49111111111111
04/2014,1159,SAN VICENTE DE LA BARQUERA,CANTABRIA,44.400000000000006,2.8266666666666667,,-4.392222222222222,43.39333333333333
04/2014,1183X,LLANES,ASTURIAS,52.0,2.716666666666667,5.1,-4.748055555555555,43.42027777777778
04/2014,1207U,"GIJÓN, CAMPUS",ASTURIAS,63.800000000000004,2.4699999999999998,,-5.621111111111111,43.52305555555555
04/2014,1208H,"GIJÓN, PUERTO",ASTURIAS,54.8,,5.11,-5.700833333333334,43.559999999999995
04/2014,1210X,CABO PEÑAS,ASTURIAS,0.0,4.152,,-5.8486111111111105,43.655833333333334
04/2014,1212E,ASTURIAS AEROPUERTO,ASTURIAS,51.2,3.066666666666667,4.416666666666667,-6.0441666666666665,43.566944444444445
04/2014,1221D,PAJARES-VALGRANDE,ASTURIAS,159.5,3.34,,-5.776388888888889,42.978611111111114
04/2014,1249I,OVIEDO,ASTURIAS,113.7,2.3333333333333335,4.546666666666667,-5.874166666666667,43.35333333333333
04/2014,1249X,OVIEDO,ASTURIAS,113.7,2.3266666666666667,4.693333333333333,-5.874166666666667,43.35333333333333
04/2014,1283U,CABO BUSTO,ASTURIAS,38.0,4.138461538461538,5.483333333333333,-6.47,43.56916666666667
04/2014,1351,ESTACA DE BARES,A CORUÑA,26.8,9.337931034482759,4.5793103448275865,-7.6850000000000005,43.78611111111111
04/2014,1387,A CORUÑA,A CORUÑA,43.4,3.9633333333333334,5.65,-8.421388888888888,43.365833333333335
04/2014,1387E,A CORUÑA AEROPUERTO,A CORUÑA,50.2,3.8333333333333335,4.656666666666666,-8.371944444444445,43.30694444444444
04/2014,1393,CABO VILÁN,A CORUÑA,83.1,7.206666666666666,,-9.210833333333333,43.160555555555554
04/2014,1400,FISTERRA,A CORUÑA,81.39999999999999,6.623333333333333,5.651724137931034,-9.29138888888889,42.92472222222222
04/2014,1428,SANTIAGO DE COMPOSTELA AEROPUERTO,A CORUÑA,112.2,3.183333333333333,4.116666666666666,-8.410555555555556,42.88805555555555
04/2014,1473A,PADRÓN,A CORUÑA,130.4,2.89,,-8.627222222222223,42.73833333333334
04/2014,1475X,SANTIAGO DE COMPOSTELA,A CORUÑA,96.9,0.9333333333333333,,-8.555833333333334,42.876111111111115
04/2014,1484C,PONTEVEDRA,PONTEVEDRA,129.20000000000002,1.4233333333333333,5.183333333333334,-8.615833333333333,42.43833333333333
04/2014,1495,VIGO AEROPUERTO,PONTEVEDRA,112.3,3.3586206896551722,3.5266666666666664,-8.623888888888889,42.23861111111111
04/2014,1505,LUGO AEROPUERTO,LUGO,71.1,1.9866666666666668,4.946666666666667,-7.4575000000000005,43.11138888888889
04/2014,1542,PUERTO DE LEITARIEGOS,ASTURIAS,106.4,3.6888888888888887,4.85,-6.4141666666666675,42.994166666666665
04/2014,1549,PONFERRADA,LEON,32.9,1.73,6.87,-6.6,42.56388888888888
04/2014,1631E,A POBRA DE TRIVES,OURENSE,67.4,2.51,4.910344827586207,-7.2825,42.339444444444446
04/2014,1690A,OURENSE,OURENSE,41.6,1.43,5.77,-7.859722222222222,42.32527777777778
04/2014,1700X,O CARBALLIÑO,OURENSE,66.1,1.01,,-8.092500000000001,42.421388888888885
04/2014,1735X,XINZO DE LIMIA,OURENSE,37.1,2.620833333333333,,-7.733611111111111,42.07916666666667
04/2014,2030,SORIA,SORIA,50.2,2.8766666666666665,7.46,-2.4830555555555556,41.775
04/2014,2117D,ARANDA DE DUERO,BURGOS,29.200000000000003,2.216666666666667,6.576666666666666,-3.742777777777778,41.66583333333333
04/2014,2150H,"LA PINILLA, ESTACIÓN DE ESQUÍ",SEGOVIA,0.0,8.9,5.458620689655173,-3.475277777777778,41.19194444444444
04/2014,2235U,CERVERA DE PISUERGA,PALENCIA,51.8,2.8884615384615384,6.906896551724138,-4.52,42.870555555555555
04/2014,2298,PALACIOS DE LA SIERRA,BURGOS,0.0,2.8307692307692305,6.739999999999999,-3.131666666666667,41.959722222222226
04/2014,2331,BURGOS AEROPUERTO,BURGOS,56.5,3.8800000000000003,6.739999999999999,-3.6213888888888888,42.356944444444444
04/2014,2374X,CARRIÓN DE LOS CONDES,PALENCIA,41.6,1.9566666666666668,7.3533333333333335,-4.617222222222223,42.350833333333334
04/2014,2400E,AUTILLA DEL PINO,PALENCIA,35.4,4.206666666666667,,-4.602777777777778,41.995555555555555
04/2014,2422,VALLADOLID,VALLADOLID,13.4,2.33,8.056666666666667,-4.754444444444444,41.64083333333333
04/2014,2444,ÁVILA,AVILA,30.5,3.2266666666666666,8.629999999999999,-4.679722222222223,40.659166666666664
04/2014,2462,PUERTO DE NAVACERRADA,MADRID,118.7,3.7533333333333334,6.37,-4.010555555555555,40.793055555555554
04/2014,2465,SEGOVIA,SEGOVIA,37.9,3.0366666666666666,7.6033333333333335,-4.126388888888888,40.945277777777775
04/2014,2491C,"LA COVATILLA, ESTACIÓN DE ESQUÍ",SALAMANCA,135.4,5.13,7.266666666666667,-5.69,40.355000000000004
04/2014,2503X,OLMEDO,VALLADOLID,3.5999999999999996,2.1966666666666668,,-4.686944444444444,41.325833333333335
04/2014,2539,VALLADOLID AEROPUERTO,VALLADOLID,15.0,3.9699999999999998,7.506666666666666,-4.855555555555555,41.71194444444445
04/2014,2614,ZAMORA,ZAMORA,14.5,2.1133333333333333,8.15,-5.735277777777778,41.51555555555556
04/2014,2630X,PUERTO DE SAN ISIDRO,LEON,184.6,3.89,4.527777777777778,-5.376944444444444,43.06222222222222
04/2014,2661,"LEÓN, VIRGEN DEL CAMINO",LEON,58.1,3.6,0.0,-5.651111111111112,42.58833333333334
04/2014,2661B,LEÓN AEROPUERTO,LEON,56.4,3.8633333333333337,8.596666666666666,-5.6436111111111105,42.599444444444444
04/2014,2737E,LAGUNAS DE SOMOZA,LEON,34.4,2.7733333333333334,,-6.196666666666667,42.3775
04/2014,2755X,BENAVENTE,ZAMORA,21.8,2.49,7.666666666666667,-5.666666666666667,42.01083333333333
04/2014,2775X,VILLARDECIERVOS,ZAMORA,53.8,2.933333333333333,8.423333333333334,-6.279722222222222,41.94138888888889
04/2014,2811A,NAVARREDONDA DE GREDOS,AVILA,78.2,1.7434782608695654,,-5.143055555555556,40.35055555555556
04/2014,2867,SALAMANCA AEROPUERTO,SALAMANCA,20.9,3.9566666666666666,8.416666666666666,-5.498333333333333,40.95944444444445
04/2014,2870,SALAMANCA,SALAMANCA,20.3,2.013333333333333,,-5.662222222222223,40.9575
04/2014,2916A,VITIGUDINO,SALAMANCA,55.4,3.9033333333333333,7.27,-6.437777777777778,41.01138888888889
04/2014,2946X,SAELICES EL CHICO,SALAMANCA,66.2,2.73,7.83,-6.6,40.635
04/2014,3013,MOLINA DE ARAGÓN,GUADALAJARA,29.8,2.539285714285714,8.068,-1.8788888888888888,40.84166666666667
04/2014,3044X,CAÑIZARES,CUENCA,67.4,,,-2.15,40.530277777777776
04/2014,3094B,TARANCÓN,CUENCA,13.399999999999999,3.51,8.437931034482759,-3.0213888888888887,40.01138888888889
04/2014,3100B,ARANJUEZ,MADRID,25.7,1.8199999999999998,,-3.546111111111111,40.06722222222223
04/2014,3110C,BUITRAGO DEL LOZOYA,MADRID,26.8,2.13,,-3.613611111111111,41.00694444444444
04/2014,3111D,SOMOSIERRA,MADRID,38.4,2.2473684210526317,,-3.5802777777777774,41.135555555555555
04/2014,3129,MADRID AEROPUERTO,MADRID,27.8,3.8233333333333333,8.783333333333333,-3.5555555555555554,40.46666666666667
04/2014,3130C,SIGÜENZA,GUADALAJARA,26.2,,7.214285714285714,-2.618055555555556,41.08638888888889
04/2014,3168C,"GUADALAJARA, EL SERRANILLO",GUADALAJARA,0.0,,,-3.1733333333333333,40.659166666666664
04/2014,3168D,GUADALAJARA,GUADALAJARA,50.199999999999996,2.853333333333333,9.533333333333333,-3.15,40.63027777777778
04/2014,3175,TORREJÓN DE ARDOZ,MADRID,28.1,3.2266666666666666,9.06,-3.443611111111111,40.48861111111111
04/2014,3191E,COLMENAR VIEJO,MADRID,29.7,3.0166666666666666,8.793333333333333,-3.765,40.69611111111111
04/2014,3194U,"MADRID, CIUDAD UNIVERSITARIA",MADRID,25.5,,,-3.7241666666666666,40.45166666666667
04/2014,3195,"MADRID, RETIRO",MADRID,58.5,1.9899999999999998,,-3.6780555555555554,40.411944444444444
04/2014,3196,"MADRID, CUATRO VIENTOS",MADRID,25.9,3.643333333333333,9.176666666666668,-3.786111111111111,40.37555555555556
04/2014,3200,GETAFE,MADRID,38.199999999999996,3.886666666666667,9.076666666666666,-3.7222222222222223,40.29944444444444
04/2014,3260B,TOLEDO,TOLEDO,27.0,3.6233333333333335,9.443333333333333,-4.045277777777778,39.88472222222222
04/2014,3266A,PUERTO ALTO DEL LEÓN,MADRID,46.9,,,-4.141944444444444,40.70638888888889
04/2014,3298X,SAN PABLO DE LOS MONTES,TOLEDO,31.8,2.3433333333333333,,-4.350555555555555,39.54694444444444
04/2014,3338,ROBLEDO DE CHAVELA,MADRID,4.0,1.45,,-4.25,40.42777777777778
04/2014,3365A,TALAVERA DE LA REINA,TOLEDO,22.2,2.7680000000000002,,-4.863611111111111,39.95861111111111
04/2014,3391,SOTILLO DE LA ADRADA,AVILA,30.0,1.2583333333333333,,-4.590833333333333,40.28861111111111
04/2014,3434X,NAVALMORAL DE LA MATA,CACERES,57.599999999999994,2.71,7.758333333333333,-5.5825,39.94583333333333
04/2014,3463X,TRUJILLO,CACERES,19.4,2.496153846153846,,-5.854166666666666,39.4825
04/2014,3469A,CÁCERES,CACERES,31.2,2.9566666666666666,8.763333333333332,-6.338888888888889,39.47138888888889
04/2014,3519X,PLASENCIA,CACERES,48.4,1.7533333333333334,,-6.085833333333333,40.043055555555554
04/2014,3526X,CORIA,CACERES,54.4,2.4766666666666666,8.266666666666667,-6.5575,40.00361111111111
04/2014,3576X,VALENCIA DE ALCÁNTARA,CACERES,54.400000000000006,3.2299999999999995,,-7.231111111111111,39.414722222222224
04/2014,4061X,QUINTANAR DE LA ORDEN,TOLEDO,8.9,1.29,,-3.0483333333333333,39.59722222222222
04/2014,4067,MADRIDEJOS,TOLEDO,8.0,3.0105263157894733,9.739285714285714,-3.5283333333333333,39.49194444444444
04/2014,4103X,TOMELLOSO,CIUDAD REAL,10.399999999999999,2.8444444444444446,8.786206896551725,-3.0075,39.16916666666666
04/2014,4121,CIUDAD REAL,CIUDAD REAL,29.9,2.3699999999999997,8.833333333333334,-3.9202777777777778,38.98916666666667
04/2014,4147X,VALDEPEÑAS,CIUDAD REAL,18.0,2.2866666666666666,8.137931034482758,-3.391388888888889,38.75055555555556
04/2014,4148,VISO DEL MARQUÉS,CIUDAD REAL,32.9,2.9250000000000003,,-3.5666666666666664,38.518055555555556
04/2014,4220X,PUEBLA DE DON RODRIGO,CIUDAD REAL,27.1,1.776,,-4.621944444444445,39.08361111111111
04/2014,4244X,HERRERA DEL DUQUE,BADAJOZ,42.800000000000004,2.503333333333333,8.748275862068965,-5.062222222222222,39.169444444444444
04/2014,4267X,HINOJOSA DEL DUQUE,CORDOBA,29.700000000000003,3.0214285714285714,,-5.1211111111111105,38.49861111111111
04/2014,4358X,DON BENITO,BADAJOZ,50.6,2.413333333333333,8.27,-5.880555555555556,38.955555555555556
04/2014,4386B,LLERENA,BADAJOZ,45.2,4.163333333333333,8.636666666666667,-6.016944444444444,38.23166666666667
04/2014,4410X,MÉRIDA,BADAJOZ,43.2,2.64,,-6.385555555555556,38.91583333333333
04/2014,4452,BADAJOZ AEROPUERTO,BADAJOZ,41.0,3.0433333333333334,7.67,-6.813888888888889,38.88333333333333
04/2014,4511C,JEREZ DE LOS CABALLEROS,BADAJOZ,50.2,3.7785714285714285,7.943333333333333,-6.765,38.29861111111111
04/2014,4549Y,AYAMONTE,HUELVA,57.8,2.5566666666666666,,-7.3950000000000005,37.19472222222222
04/2014,4560Y,ALAJAR,HUELVA,58.6,2.470833333333333,,-6.675000000000001,37.868611111111115
04/2014,4642E,"HUELVA, RONDA ESTE",HUELVA,64.0,3.1599999999999997,9.129999999999999,-6.911666666666667,37.27833333333333
04/2014,5000C,CEUTA,CEUTA,41.2,2.783333333333333,8.682758620689656,-5.3469444444444445,35.88861111111111
04/2014,5038X,CAZORLA,JAEN,71.3,1.05,,-3.003888888888889,37.91583333333333
04/2014,5047E,BAZA,GRANADA,0.4,3.233333333333333,8.716000000000001,-2.735,37.505833333333335
04/2014,5051X,HUÉSCAR,GRANADA,20.400000000000002,2.3099999999999996,8.685714285714285,-2.6527777777777777,37.861111111111114
04/2014,5181D,ARROYO DEL OJANCO,JAEN,38.7,2.606666666666667,,-2.8897222222222223,38.31472222222222
04/2014,5192,VILLARRODRIGO,JAEN,37.8,3.6399999999999997,8.196551724137931,-2.6375,38.48916666666667
04/2014,5246,SANTA ELENA,JAEN,0.0,2.0352941176470587,7.658823529411764,-3.5352777777777775,38.34444444444445
04/2014,5270,"JAÉN, INSTITUTO",JAEN,36.3,,,-3.7888888888888888,37.77638888888889
04/2014,5270B,JAÉN,JAEN,49.4,2.5533333333333332,9.093333333333334,-3.8091666666666666,37.777499999999996
04/2014,5298X,ANDÚJAR,JAEN,47.1,2.182758620689655,,-4.0633333333333335,38.02305555555555
04/2014,5390Y,VILLANUEVA DE CÓRDOBA,CORDOBA,61.0,2.7666666666666666,,-4.608888888888888,38.33305555555556
04/2014,5402,CÓRDOBA AEROPUERTO,CORDOBA,46.300000000000004,2.45,8.31,-4.846666666666667,37.848888888888894
04/2014,5427X,DOÑA MENCÍA,CORDOBA,69.3,2.83,,-4.353888888888888,37.55611111111111
04/2014,5514,GRANADA BASE AÉREA,GRANADA,30.400000000000002,5.0,8.673333333333334,-3.631388888888889,37.13722222222222
04/2014,5530E,GRANADA AEROPUERTO,GRANADA,26.0,2.6599999999999997,9.226666666666667,-3.789722222222222,37.19027777777777
04/2014,5582A,LOJA,GRANADA,42.0,1.68,,-4.152777777777779,37.16111111111111
04/2014,5612B,LA RODA DE ANDALUCÍA,SEVILLA,40.2,3.3699999999999997,,-4.77,37.19444444444444
04/2014,5641X,ÉCIJA,SEVILLA,36.0,2.3285714285714287,,-5.085,37.51611111111111
04/2014,5704B,CAZALLA DE LA SIERRA,SEVILLA,66.7,1.87,,-5.769722222222222,37.92638888888889
04/2014,5783,SEVILLA AEROPUERTO,SEVILLA,35.4,2.89,9.096666666666666,-5.879166666666667,37.416666666666664
04/2014,5796,MORÓN DE LA FRONTERA,SEVILLA,131.4,2.086666666666667,8.303333333333333,-5.6113888888888885,37.16444444444444
04/2014,5860E,"MOGUER, EL ARENOSILLO",HUELVA,16.1,2.61,,-6.7380555555555555,37.09805555555556
04/2014,5910,"ROTA, BASE NAVAL",CADIZ,45.7,4.7,8.54,-6.3325,36.638888888888886
04/2014,5911A,GRAZALEMA,CADIZ,233.8,1.6166666666666667,,-5.3741666666666665,36.760555555555555
04/2014,5960,JEREZ DE LA FRONTERA AEROPUERTO,CADIZ,56.1,3.6966666666666668,8.51,-6.055833333333333,36.75055555555556
04/2014,5972X,SAN FERNANDO,CADIZ,35.800000000000004,3.725925925925926,,-6.205555555555556,36.46555555555556
04/2014,5973,CÁDIZ,CADIZ,41.0,4.23,8.272727272727273,-6.257777777777778,36.499722222222225
04/2014,5995B,VEJER DE LA FRONTERA,CADIZ,96.60000000000001,3.9,,-5.965,36.245555555555555
04/2014,6000A,MELILLA,MELILLA,4.1,4.01,8.91,-2.956388888888889,35.27638888888889
04/2014,6001,TARIFA,CADIZ,50.900000000000006,6.073333333333333,,-5.598888888888888,36.013888888888886
04/2014,6058I,ESTEPONA,MALAGA,40.3,3.1266666666666665,9.365517241379312,-5.155,36.41694444444444
04/2014,6084X,FUENGIROLA,MALAGA,26.4,2.11,,-4.618333333333334,36.53861111111111
04/2014,6106X,ANTEQUERA,MALAGA,35.9,2.037037037037037,,-4.748333333333333,37.029444444444444
